[{"business_status": "OPERATIONAL", "geometry": {"location": {"lat": 52.4019708, "lng": 16.9014403}, "viewport": {"northeast": {"lat": 52.4031156302915, "lng": 16.9028578802915}, "southwest": {"lat": 52.4004176697085, "lng": 16.9001599197085}}}, "icon": "https://maps.gstatic.com/mapfiles/place_api/icons/generic_recreational-71.png", "name": "Palmiarnia Pozna\u0144ska", "opening_hours": {"open_now": true}, "photos": [{"height": 1333, "html_attributions": ["<a href=\"https://maps.google.com/maps/contrib/112995287943142974128\">Palmiarnia Pozna\u0144ska</a>"], "photo_reference": "CkQ0AAAAFJENtNyvkBga7-UjkiTPywZyWfJYQCowW4yUUhOF4WnaxC6umoU8OoDaqH53YuKB5cEUB8AbnJ6J4_JPxjJHfRIQY8LK6uqfKTlw2lSspraVAhoUiePJbiP1mmpqG9wWc-ZiHfJQl3g", "width": 2000}], "place_id": "ChIJUbkWetJEBEcRrfyATKdQipQ", "plus_code": {"compound_code": "CW22+QH Pozna\u0144, Poland", "global_code": "9F4RCW22+QH"}, "rating": 4.7, "reference": "ChIJUbkWetJEBEcRrfyATKdQipQ", "scope": "GOOGLE", "types": ["aquarium", "tourist_attraction", "park", "point_of_interest", "establishment"], "user_ratings_total": 10387, "vicinity": "Matejki 18, Pozna\u0144", "time_text": "31 mins", "time_sec": 1877}, {"business_status": "OPERATIONAL", "geometry": {"location": {"lat": 52.41050569999999, "lng": 16.9001826}, "viewport": {"northeast": {"lat": 52.4119406302915, "lng": 16.9015749802915}, "southwest": {"lat": 52.4092426697085, "lng": 16.8988770197085}}}, "icon": "https://maps.gstatic.com/mapfiles/place_api/icons/generic_business-71.png", "name": "Dobema-Niepowtarzalne Ogrody. PHU. Wanzke M.", "photos": [{"height": 3456, "html_attributions": ["<a href=\"https://maps.google.com/maps/contrib/114268134787388405378\">Mariusz Wanzke</a>"], "photo_reference": "CkQ0AAAAgAxsyisDZT0zI_RQYbBLzYL45Xkm3nb6WZLMMwZy8Ur5A5gCAlja4MPDCT7-2Fs9k5_AMW_QGnTI6WiUw00GNhIQva_uf08jYDMMtxgLirp0BBoUlmde8SNhwkuakxFPUyy3nD4B_Vw", "width": 4608}], "place_id": "ChIJN7JeoMlEBEcR3NozswOodQA", "plus_code": {"compound_code": "CW62+63 Pozna\u0144, Poland", "global_code": "9F4RCW62+63"}, "rating": 4, "reference": "ChIJN7JeoMlEBEcR3NozswOodQA", "scope": "GOOGLE", "types": ["aquarium", "general_contractor", "point_of_interest", "establishment"], "user_ratings_total": 4, "vicinity": "Szamarzewskiego 14/18, Pozna\u0144", "time_text": "25 mins", "time_sec": 1494}, {"business_status": "OPERATIONAL", "geometry": {"location": {"lat": 52.4112346, "lng": 16.9116076}, "viewport": {"northeast": {"lat": 52.4126008802915, "lng": 16.9128614802915}, "southwest": {"lat": 52.4099029197085, "lng": 16.91016351970849}}}, "icon": "https://maps.gstatic.com/mapfiles/place_api/icons/shopping-71.png", "name": "ACQUATICA Salon ro\u015blin akwariowych", "opening_hours": {"open_now": false}, "photos": [{"height": 1501, "html_attributions": ["<a href=\"https://maps.google.com/maps/contrib/101488728978969342726\">ACQUATICA Salon ro\u015blin akwariowych</a>"], "photo_reference": "CkQ0AAAAt0vj538aXiT5mVLIIh_Klu8kNwDQtwra1r7J-MiF_hezyTS-_kTU37KaApxf8HWf-NqcypiKLtwnhHMZ0_ok8hIQZq30dZkT5-omk5NGVXR6cRoUrd0n7k1OWMLnMt3022w6Gqlqmsw", "width": 2477}], "place_id": "ChIJow_-RfRbBEcRL9zFaLyr6_8", "plus_code": {"compound_code": "CW66+FJ Pozna\u0144, Poland", "global_code": "9F4RCW66+FJ"}, "rating": 4.8, "reference": "ChIJow_-RfRbBEcRL9zFaLyr6_8", "scope": "GOOGLE", "types": ["aquarium", "pet_store", "point_of_interest", "store", "establishment"], "user_ratings_total": 12, "vicinity": "ROTI, ul. J.H.D\u0105browskiego 9/11 (wej\u015bcie od ul. Mickiewicza 20 pod bistrem, Pozna\u0144", "time_text": "13 mins", "time_sec": 809}, {"business_status": "OPERATIONAL", "geometry": {"location": {"lat": 52.4021464, "lng": 16.9019183}, "viewport": {"northeast": {"lat": 52.4037103302915, "lng": 16.9032514802915}, "southwest": {"lat": 52.4010123697085, "lng": 16.9005535197085}}}, "icon": "https://maps.gstatic.com/mapfiles/place_api/icons/generic_business-71.png", "name": "Akwarium z palmiarnia", "photos": [{"height": 3024, "html_attributions": ["<a href=\"https://maps.google.com/maps/contrib/107099221456649728777\">Eason Cheng</a>"], "photo_reference": "CkQ0AAAArDDoY0buEIlLbE-Q0zTQeYOP6RMJ8gmVAaPfCi3C7ziv0QGu7rwsK_5RfTZZg1bDd4M33rm4zJl1kCF65jerXxIQWlByEi_jsxYFt-r1HVZ9PhoUVDbuL960OxwT1t4w5aMlpJPDRN8", "width": 4032}], "place_id": "ChIJb5RI0WFFBEcReO-lxEnivyE", "plus_code": {"compound_code": "CW22+VQ Pozna\u0144, Poland", "global_code": "9F4RCW22+VQ"}, "rating": 5, "reference": "ChIJb5RI0WFFBEcReO-lxEnivyE", "scope": "GOOGLE", "types": ["aquarium", "point_of_interest", "establishment"], "user_ratings_total": 1, "vicinity": "Orzeszkowej 15, Pozna\u0144", "time_text": "30 mins", "time_sec": 1788}, {"business_status": "OPERATIONAL", "geometry": {"location": {"lat": 52.40689589999999, "lng": 16.938481}, "viewport": {"northeast": {"lat": 52.4082904802915, "lng": 16.9398767802915}, "southwest": {"lat": 52.4055925197085, "lng": 16.9371788197085}}}, "icon": "https://maps.gstatic.com/mapfiles/place_api/icons/shopping-71.png", "name": "Antyki. Przym\u0119cki Jacek.", "opening_hours": {"open_now": false}, "photos": [{"height": 4160, "html_attributions": ["<a href=\"https://maps.google.com/maps/contrib/108658953353248081065\">MarKS</a>"], "photo_reference": "CkQzAAAADxf07e7FlRUuEMXeL9LDDMoYg33SKo41Cf1myMGNPdMpMRzSJp-KbFtGRz5P2a_66BjG9PqWp9E7r5BuSMPR7BIQGIw7T3GR-omnIArzSeOSQxoU2fLuHMXa2l9pri4DZS6men_tw7s", "width": 3120}], "place_id": "ChIJlYZOjj9bBEcRAafy0Wromw0", "plus_code": {"compound_code": "CW4Q+Q9 Pozna\u0144, Poland", "global_code": "9F4RCW4Q+Q9"}, "rating": 3.9, "reference": "ChIJlYZOjj9bBEcRAafy0Wromw0", "scope": "GOOGLE", "types": ["art_gallery", "home_goods_store", "point_of_interest", "store", "establishment"], "user_ratings_total": 7, "vicinity": "Grobla 30, Pozna\u0144", "time_text": "13 mins", "time_sec": 784}, {"business_status": "OPERATIONAL", "geometry": {"location": {"lat": 52.40747469999999, "lng": 16.9111912}, "viewport": {"northeast": {"lat": 52.40899038029149, "lng": 16.9126480302915}, "southwest": {"lat": 52.40629241970849, "lng": 16.90995006970849}}}, "icon": "https://maps.gstatic.com/mapfiles/place_api/icons/generic_business-71.png", "name": "Concordia Design", "opening_hours": {"open_now": true}, "photos": [{"height": 2048, "html_attributions": ["<a href=\"https://maps.google.com/maps/contrib/105366193839045011027\">Pawe\u0142 Chojnacki</a>"], "photo_reference": "CkQ0AAAA0Gzcl7mlJWhH1EfnE9dwM6br-07irF2OPPYsgI4jsHbNoFXGkviqYy-A3HMSMX9dJrlGjzqoa1f8CoiRMDpTeRIQL3UzggSXkrKOZCGbgIiZ9RoUEtdGqcES8BO3-T0hEFtCmXRwfS8", "width": 1536}], "place_id": "ChIJTZ0YxTRbBEcRhnUli-jnVA8", "plus_code": {"compound_code": "CW46+XF Pozna\u0144, Poland", "global_code": "9F4RCW46+XF"}, "rating": 4.5, "reference": "ChIJTZ0YxTRbBEcRhnUli-jnVA8", "scope": "GOOGLE", "types": ["art_gallery", "point_of_interest", "establishment"], "user_ratings_total": 1415, "vicinity": "Zwierzyniecka 3, Pozna\u0144", "time_text": "15 mins", "time_sec": 924}, {"business_status": "OPERATIONAL", "geometry": {"location": {"lat": 52.40913979999999, "lng": 16.9230765}, "viewport": {"northeast": {"lat": 52.4104730302915, "lng": 16.9244479802915}, "southwest": {"lat": 52.4077750697085, "lng": 16.9217500197085}}}, "icon": "https://maps.gstatic.com/mapfiles/place_api/icons/generic_business-71.png", "name": "Pozna\u0144ska Galeria Nowa", "photos": [{"height": 3265, "html_attributions": ["<a href=\"https://maps.google.com/maps/contrib/113955543948975236397\">Piotr Wozi\u0144ski</a>"], "photo_reference": "CkQ0AAAAefIM8HhyZpZgn0pB01G6_m8GzultK9Enii1A7JR8FNcJlAoENW9dv5kz9fC970TMOeLXvru84HPV1LOWmDcwtxIQAQBf3zhMIca2icfoG0VZGRoUqdYnVBbdeUVECSAw2yIHpXRqogs", "width": 4899}], "place_id": "ChIJ138xxTdbBEcR2l0LiU0cwsg", "plus_code": {"compound_code": "CW5F+M6 Pozna\u0144, Poland", "global_code": "9F4RCW5F+M6"}, "rating": 3.6, "reference": "ChIJ138xxTdbBEcR2l0LiU0cwsg", "scope": "GOOGLE", "types": ["art_gallery", "point_of_interest", "establishment"], "user_ratings_total": 5, "vicinity": "Miel\u017cy\u0144skiego 20, Pozna\u0144", "time_text": "1 min", "time_sec": 86}, {"business_status": "OPERATIONAL", "geometry": {"location": {"lat": 52.40881, "lng": 16.9195505}, "viewport": {"northeast": {"lat": 52.4101589802915, "lng": 16.9208994802915}, "southwest": {"lat": 52.4074610197085, "lng": 16.9182015197085}}}, "icon": "https://maps.gstatic.com/mapfiles/place_api/icons/generic_business-71.png", "name": "Galeria Piekary", "opening_hours": {"open_now": false}, "photos": [{"height": 2736, "html_attributions": ["<a href=\"https://maps.google.com/maps/contrib/104170818389166407004\">\u0412\u0430\u043b\u0435\u0440\u0456\u0439 \u0420\u0454\u043f\u0456\u043a</a>"], "photo_reference": "CkQ0AAAAduFtWkfEM1Ysu_CVR_HqDWTAenU5LK9Q9fyF5Y1CCZ7_zR7-tBq8PxW4uX3LQwR8TDIhKBR1DXQwWSCPVeKyjhIQDwA39dIkWUyiKbiNPj-FBBoUJtWaeA56FaDq9E9evjBzuFjIOy4", "width": 3648}], "place_id": "ChIJJXS-azZbBEcRE2gvGkGVvbc", "plus_code": {"compound_code": "CW59+GR Pozna\u0144, Poland", "global_code": "9F4RCW59+GR"}, "rating": 4.4, "reference": "ChIJJXS-azZbBEcRE2gvGkGVvbc", "scope": "GOOGLE", "types": ["art_gallery", "point_of_interest", "establishment"], "user_ratings_total": 17, "vicinity": "\u015aw. Marcin 80/82, Pozna\u0144", "time_text": "6 mins", "time_sec": 346}, {"business_status": "OPERATIONAL", "geometry": {"location": {"lat": 52.4096632, "lng": 16.9339603}, "viewport": {"northeast": {"lat": 52.4110129802915, "lng": 16.9353017302915}, "southwest": {"lat": 52.4083150197085, "lng": 16.9326037697085}}}, "icon": "https://maps.gstatic.com/mapfiles/place_api/icons/generic_business-71.png", "name": "Skowron Micha\u0142. Galeria. Dzie\u0142a sztuki dawnej SC", "photos": [{"height": 1080, "html_attributions": ["<a href=\"https://maps.google.com/maps/contrib/108351233474287795622\">Piotr \u017belasko</a>"], "photo_reference": "CkQ0AAAAHfE94L_3TG0xo9M45jOP0X--urKrtYrYQMp9zU0xgqmGnE4VpiXZKJenLNS-dIgUJa83ZJ_S3tNe_HcWHZDHpBIQxXwdR-RZD3iRHEyVr2CpCBoUsBJ35iuDDgwZy_pnRER_GrhTm0A", "width": 1920}], "place_id": "ChIJXTWSN0dbBEcR3kNm_tsTz4A", "plus_code": {"compound_code": "CW5M+VH Pozna\u0144, Poland", "global_code": "9F4RCW5M+VH"}, "rating": 1, "reference": "ChIJXTWSN0dbBEcR3kNm_tsTz4A", "scope": "GOOGLE", "types": ["art_gallery", "point_of_interest", "establishment"], "user_ratings_total": 1, "vicinity": "Wroniecka 3, Pozna\u0144", "time_text": "9 mins", "time_sec": 544}, {"business_status": "OPERATIONAL", "geometry": {"location": {"lat": 52.4077858, "lng": 16.9300414}, "viewport": {"northeast": {"lat": 52.40917743029149, "lng": 16.9313939302915}, "southwest": {"lat": 52.40647946970849, "lng": 16.9286959697085}}}, "icon": "https://maps.gstatic.com/mapfiles/place_api/icons/generic_business-71.png", "name": "ART|YKWARIAT", "opening_hours": {"open_now": false}, "photos": [{"height": 2160, "html_attributions": ["<a href=\"https://maps.google.com/maps/contrib/104402516124107176598\">Zdzis\u0142aw Jankowski</a>"], "photo_reference": "CkQ0AAAA-7CebFUnPEUF5cGVEnmWeQGnkv_hejoVi-41h4ntP3sWiv3Cf2HHDomWUmCLJwJJW4oxtT0iB0MiXiMMZBnVcxIQJQdG6KDi3zmgzxU6S1FWFxoUOP4ULbBCgkyPTFY9zgD5FfPbOQQ", "width": 3840}], "place_id": "ChIJB24nijhbBEcR1912CJNuYmY", "plus_code": {"compound_code": "CW5J+42 Pozna\u0144, Poland", "global_code": "9F4RCW5J+42"}, "rating": 4.5, "reference": "ChIJB24nijhbBEcR1912CJNuYmY", "scope": "GOOGLE", "types": ["art_gallery", "point_of_interest", "store", "establishment"], "user_ratings_total": 13, "vicinity": "Paderewskiego 8, Pozna\u0144", "time_text": "6 mins", "time_sec": 360}, {"business_status": "OPERATIONAL", "geometry": {"location": {"lat": 52.40855129999999, "lng": 16.9326656}, "viewport": {"northeast": {"lat": 52.41010628029149, "lng": 16.9340092302915}, "southwest": {"lat": 52.40740831970849, "lng": 16.93131126970849}}}, "icon": "https://maps.gstatic.com/mapfiles/place_api/icons/generic_business-71.png", "name": "Galeria Polskich Artyst\u00f3w \"Jeszcze Nie Wiem?\"", "photos": [{"height": 2736, "html_attributions": ["<a href=\"https://maps.google.com/maps/contrib/104170818389166407004\">\u0412\u0430\u043b\u0435\u0440\u0456\u0439 \u0420\u0454\u043f\u0456\u043a</a>"], "photo_reference": "CkQ0AAAAeyZeU4rf8ZDcF-TPjGlGYDdR2PLbKOQNTmjQJ4e_qdHof0u6QQMWODXp-RahdsA5uTcu-pmo0sxorleyo9SC3xIQnoIpOIUiINnHL8GgRxk6HhoUHQe5ZJcJjpwVoUX16F2AT3e04Pc", "width": 3648}], "place_id": "ChIJ-SXhWEdbBEcRtx9byjL4cWU", "plus_code": {"compound_code": "CW5M+C3 Pozna\u0144, Poland", "global_code": "9F4RCW5M+C3"}, "rating": 4.3, "reference": "ChIJ-SXhWEdbBEcRtx9byjL4cWU", "scope": "GOOGLE", "types": ["art_gallery", "point_of_interest", "establishment"], "user_ratings_total": 4, "vicinity": "Stary Rynek 79, Pozna\u0144", "time_text": "9 mins", "time_sec": 537}, {"business_status": "OPERATIONAL", "geometry": {"location": {"lat": 52.4099409, "lng": 16.936032}, "viewport": {"northeast": {"lat": 52.4111052302915, "lng": 16.9373412302915}, "southwest": {"lat": 52.4084072697085, "lng": 16.9346432697085}}}, "icon": "https://maps.gstatic.com/mapfiles/place_api/icons/generic_business-71.png", "name": "Galeria Sztuki Wsp\u00f3\u0142czesnej EGO", "place_id": "ChIJ-aC22kBbBEcRv-9wCs7Nue0", "plus_code": {"compound_code": "CW5P+XC Pozna\u0144, Poland", "global_code": "9F4RCW5P+XC"}, "rating": 5, "reference": "ChIJ-aC22kBbBEcRv-9wCs7Nue0", "scope": "GOOGLE", "types": ["art_gallery", "point_of_interest", "establishment"], "user_ratings_total": 1, "vicinity": "Dominika\u0144ska 7A, Pozna\u0144", "time_text": "12 mins", "time_sec": 700}, {"business_status": "OPERATIONAL", "geometry": {"location": {"lat": 52.40887499999999, "lng": 16.920295}, "viewport": {"northeast": {"lat": 52.4102640302915, "lng": 16.9217280302915}, "southwest": {"lat": 52.4075660697085, "lng": 16.9190300697085}}}, "icon": "https://maps.gstatic.com/mapfiles/place_api/icons/generic_business-71.png", "name": "ZEMSTA", "opening_hours": {"open_now": false}, "photos": [{"height": 4000, "html_attributions": ["<a href=\"https://maps.google.com/maps/contrib/105079114590929935719\">ZEMSTA</a>"], "photo_reference": "CkQ0AAAAwMk0eEJBKQ0QB1iZjBqgY5X91EJvGiQDbsjdnmXAC1Ta8wzT5HdRbhEtvX4GXyyxIpcx0xxsOK_4Bk8q-ErAkRIQcunOkJgnOqVvJhFEq9IyARoUkfJaSWk7ny0QKi43iHOQpK8yNVM", "width": 6000}], "place_id": "ChIJZSc3PzZbBEcRw-nXU8YWExs", "plus_code": {"compound_code": "CW5C+G4 Pozna\u0144, Poland", "global_code": "9F4RCW5C+G4"}, "price_level": 1, "rating": 4.7, "reference": "ChIJZSc3PzZbBEcRw-nXU8YWExs", "scope": "GOOGLE", "types": ["art_gallery", "book_store", "restaurant", "food", "point_of_interest", "store", "establishment"], "user_ratings_total": 313, "vicinity": "Fredry 5, Pozna\u0144", "time_text": "4 mins", "time_sec": 258}, {"business_status": "OPERATIONAL", "geometry": {"location": {"lat": 52.4098929, "lng": 16.933977}, "viewport": {"northeast": {"lat": 52.4112373802915, "lng": 16.9353672302915}, "southwest": {"lat": 52.4085394197085, "lng": 16.93266926970849}}}, "icon": "https://maps.gstatic.com/mapfiles/place_api/icons/generic_business-71.png", "name": "Mil'Art. Galeria sztuki", "opening_hours": {"open_now": false}, "photos": [{"height": 3264, "html_attributions": ["<a href=\"https://maps.google.com/maps/contrib/100794886884626144379\">Bogumi\u0142a Kwiatkowska-Koterba</a>"], "photo_reference": "CkQ0AAAAY9q3Gd41Xz6CZ6nst98q5q3PZL6TNHKpKQU3JQgfDUsEVaicmY905QjDXfTD5r2_X8W_qt9JsU0Nzq-awh3MTxIQz0_Dp5Vf9UylaaUGJ2OKSRoUEuPV9ydRzsxVFP5UXA2be-z1thE", "width": 2448}], "place_id": "ChIJhwpvOkdbBEcRDLo1gq55KyU", "plus_code": {"compound_code": "CW5M+XH Pozna\u0144, Poland", "global_code": "9F4RCW5M+XH"}, "reference": "ChIJhwpvOkdbBEcRDLo1gq55KyU", "scope": "GOOGLE", "types": ["art_gallery", "point_of_interest", "establishment"], "vicinity": "Wroniecka 6, Pozna\u0144", "time_text": "9 mins", "time_sec": 562}, {"business_status": "OPERATIONAL", "geometry": {"location": {"lat": 52.414495, "lng": 16.9198461}, "viewport": {"northeast": {"lat": 52.4158949302915, "lng": 16.9213135302915}, "southwest": {"lat": 52.4131969697085, "lng": 16.9186155697085}}}, "icon": "https://maps.gstatic.com/mapfiles/place_api/icons/generic_business-71.png", "name": "Targowisko Sztuki. Galeria i pracownia artystyczna. \u017bmidzi\u0144ska M.", "place_id": "ChIJC5GF6UtbBEcRy4yRIsGd0Pk", "plus_code": {"compound_code": "CW79+QW Pozna\u0144, Poland", "global_code": "9F4RCW79+QW"}, "reference": "ChIJC5GF6UtbBEcRy4yRIsGd0Pk", "scope": "GOOGLE", "types": ["art_gallery", "point_of_interest", "establishment"], "vicinity": "Nowowiejskiego 59, Pozna\u0144", "time_text": "11 mins", "time_sec": 656}, {"business_status": "OPERATIONAL", "geometry": {"location": {"lat": 52.40977689999999, "lng": 16.93326369999999}, "viewport": {"northeast": {"lat": 52.4111408802915, "lng": 16.9343531302915}, "southwest": {"lat": 52.4084429197085, "lng": 16.9316551697085}}}, "icon": "https://maps.gstatic.com/mapfiles/place_api/icons/generic_business-71.png", "name": "Oko/Ucho", "photos": [{"height": 4032, "html_attributions": ["<a href=\"https://maps.google.com/maps/contrib/101595934093687404971\">Janina Sobolewskaja</a>"], "photo_reference": "CkQ0AAAA7i5bj3MhUu-ZZOEnZCyQqtPkn6YTJcj0npoqf0hflMrUd1qiQvNDS-abVJ6zn3EBK41Se64hIrd_A1yKi8AHGhIQ8G6OhCNhwB_OWuKsZYsa6BoUiAcRDfPxH5ShHsqE6eJ2ilePFnE", "width": 3016}], "place_id": "ChIJIRK0P0dbBEcRB8wQKdW_0Wk", "plus_code": {"compound_code": "CW5M+W8 Pozna\u0144, Poland", "global_code": "9F4RCW5M+W8"}, "rating": 4.2, "reference": "ChIJIRK0P0dbBEcRB8wQKdW_0Wk", "scope": "GOOGLE", "types": ["art_gallery", "point_of_interest", "establishment"], "user_ratings_total": 45, "vicinity": "Masztalarska 8, Pozna\u0144", "time_text": "8 mins", "time_sec": 481}, {"business_status": "OPERATIONAL", "geometry": {"location": {"lat": 52.408568, "lng": 16.9243971}, "viewport": {"northeast": {"lat": 52.4098668802915, "lng": 16.9257088802915}, "southwest": {"lat": 52.4071689197085, "lng": 16.9230109197085}}}, "icon": "https://maps.gstatic.com/mapfiles/place_api/icons/generic_business-71.png", "name": "KB Project", "photos": [{"height": 1536, "html_attributions": ["<a href=\"https://maps.google.com/maps/contrib/110808678177062334613\">KB Project - Studio Fotograficzne - Agencja Interaktywna</a>"], "photo_reference": "CkQ0AAAA96wL1CaAFzJUJDOKytWEqYc-adLu4AcjbCXujct63SaBo3_iYOkxtRl0u_hi0ssM0XYNlk6DXSt6Xe7EGAvPZRIQLDQyISEOLUoFxxcPk6qfdhoUyTxLq77C1VndeVzte3YHAnp-NoA", "width": 2048}], "place_id": "ChIJ_xKf7jdbBEcRJvEtLcHeLcE", "plus_code": {"compound_code": "CW5F+CQ Pozna\u0144, Poland", "global_code": "9F4RCW5F+CQ"}, "rating": 4, "reference": "ChIJ_xKf7jdbBEcRJvEtLcHeLcE", "scope": "GOOGLE", "types": ["art_gallery", "point_of_interest", "establishment"], "user_ratings_total": 2, "vicinity": "3 Maja 47, Pozna\u0144", "time_text": "3 mins", "time_sec": 168}, {"business_status": "OPERATIONAL", "geometry": {"location": {"lat": 52.40772200000001, "lng": 16.920867}, "viewport": {"northeast": {"lat": 52.40876598029149, "lng": 16.9224186802915}, "southwest": {"lat": 52.40606801970849, "lng": 16.9197207197085}}}, "icon": "https://maps.gstatic.com/mapfiles/place_api/icons/generic_business-71.png", "name": "MONA INNER SPACES Museum of Modern Art", "opening_hours": {"open_now": true}, "photos": [{"height": 2362, "html_attributions": ["<a href=\"https://maps.google.com/maps/contrib/101851171007090533635\">MONA INNER SPACES Muzeum Sztuki Najnowszej</a>"], "photo_reference": "CkQ0AAAAW0jAzZgyA0N1u6_LLVKW6MTP0FDHOA8Y-gothjy610NfVd8sO419BywPG4COT1Y5BJXJq5oOGABB4etTG4W2chIQOus4LD8CrrwxMPzYfTmTARoUn3YMeU1yVWqM-CnR-FPgS0W8Lag", "width": 2362}], "place_id": "ChIJX4aGUzZbBEcR0Y0dJugpkAQ", "plus_code": {"compound_code": "CW5C+38 Pozna\u0144, Poland", "global_code": "9F4RCW5C+38"}, "rating": 5, "reference": "ChIJX4aGUzZbBEcR0Y0dJugpkAQ", "scope": "GOOGLE", "types": ["art_gallery", "point_of_interest", "establishment"], "user_ratings_total": 3, "vicinity": "100, Pozna\u0144, Gwarna 7, Pozna\u0144", "time_text": "4 mins", "time_sec": 250}, {"business_status": "OPERATIONAL", "geometry": {"location": {"lat": 52.4097959, "lng": 16.9289681}, "viewport": {"northeast": {"lat": 52.4111422802915, "lng": 16.9304059802915}, "southwest": {"lat": 52.4084443197085, "lng": 16.9277080197085}}}, "icon": "https://maps.gstatic.com/mapfiles/place_api/icons/generic_business-71.png", "name": "Ma\u0142a Scena UAP", "place_id": "ChIJYdK2k0dbBEcRuyndE3GhL90", "plus_code": {"compound_code": "CW5H+WH Pozna\u0144, Poland", "global_code": "9F4RCW5H+WH"}, "rating": 5, "reference": "ChIJYdK2k0dbBEcRuyndE3GhL90", "scope": "GOOGLE", "types": ["art_gallery", "point_of_interest", "establishment"], "user_ratings_total": 1, "vicinity": "Aleje Marcinkowskiego 28, Pozna\u0144", "time_text": "5 mins", "time_sec": 293}, {"business_status": "OPERATIONAL", "geometry": {"location": {"lat": 52.4075204, "lng": 16.9312044}, "viewport": {"northeast": {"lat": 52.40886963029151, "lng": 16.9325479802915}, "southwest": {"lat": 52.40617166970851, "lng": 16.9298500197085}}}, "icon": "https://maps.gstatic.com/mapfiles/place_api/icons/generic_business-71.png", "name": "Labyrinth Hairstyling Poznan", "opening_hours": {"open_now": false}, "photos": [{"height": 315, "html_attributions": ["<a href=\"https://maps.google.com/maps/contrib/109612645762029227157\">Labirynt Fryzur</a>"], "photo_reference": "CkQ0AAAAhkcwMAHslxJBr6_t5noY2eDNHe6TcmMKWUjidgUfCogsOFW1lWqgXOnXGHXcUH7triaUSD_wlWsFTZs06NyJfRIQ2OoWkigpj9F36B11-g2Y5BoUo9TNq8OCDbQ6zBd69KLpa04VAUY", "width": 851}], "place_id": "ChIJCSDllThbBEcRb5Z4Cq20AqM", "plus_code": {"compound_code": "CW5J+2F Pozna\u0144, Poland", "global_code": "9F4RCW5J+2F"}, "rating": 4.6, "reference": "ChIJCSDllThbBEcRb5Z4Cq20AqM", "scope": "GOOGLE", "types": ["art_gallery", "hair_care", "health", "point_of_interest", "establishment"], "user_ratings_total": 58, "vicinity": "Murna 3/1, Pozna\u0144", "time_text": "7 mins", "time_sec": 440}, {"business_status": "OPERATIONAL", "geometry": {"location": {"lat": 52.40521, "lng": 16.929718}, "viewport": {"northeast": {"lat": 52.40659703029149, "lng": 16.9310889302915}, "southwest": {"lat": 52.4038990697085, "lng": 16.9283909697085}}}, "icon": "https://maps.gstatic.com/mapfiles/place_api/icons/shopping-71.png", "name": "Flash Tattoo Studio Tattoo and tattoo removal Poznan", "opening_hours": {"open_now": false}, "photos": [{"height": 1294, "html_attributions": ["<a href=\"https://maps.google.com/maps/contrib/103035901123084635073\">Zibi Tattoos Pozna\u0144</a>"], "photo_reference": "CkQ0AAAATfY8W9EfvP5O4hKnXsYc1CpObteTeqKVq3TdtAxsta6uDZCPInpWpWooz4dCcoAtvsx60lnBo29wme_IneTlqxIQ9JiEwQadTbfEfZonJKJUoBoUKzXLv5xPbKmq7xPTkpoih_By3AY", "width": 2302}], "place_id": "ChIJZy3jCjlbBEcR-D9meL7Lj1A", "plus_code": {"compound_code": "CW4H+3V Pozna\u0144, Poland", "global_code": "9F4RCW4H+3V"}, "rating": 4.9, "reference": "ChIJZy3jCjlbBEcR-D9meL7Lj1A", "scope": "GOOGLE", "types": ["art_gallery", "point_of_interest", "store", "establishment"], "user_ratings_total": 40, "vicinity": "Szyma\u0144skiego 7/3, Pozna\u0144", "time_text": "9 mins", "time_sec": 545}, {"business_status": "OPERATIONAL", "geometry": {"location": {"lat": 52.40729400000001, "lng": 16.937271}, "viewport": {"northeast": {"lat": 52.4086139802915, "lng": 16.9386133302915}, "southwest": {"lat": 52.40591601970851, "lng": 16.9359153697085}}}, "icon": "https://maps.gstatic.com/mapfiles/place_api/icons/generic_business-71.png", "name": "Rodr\u00edguez Gallery", "photos": [{"height": 510, "html_attributions": ["<a href=\"https://maps.google.com/maps/contrib/107661942843115043262\">Rodr\u00edguez Gallery</a>"], "photo_reference": "CkQ0AAAA8fD7D90hN5iEy4MaEuuvcrOqkaWXL3zsnL4Dnjcaxtkzn4XQd57n3bt2xsdCGBzi6alNT6nmOf0Y5BMLzyIWchIQKBO7FCy9RR8vCDkDphRpPBoUB6Nc3zuceu8OFT4J3IzSA-Vhm_4", "width": 1025}], "place_id": "ChIJZ4WneD9bBEcRDCdwEptH7ho", "plus_code": {"compound_code": "CW4P+WW Pozna\u0144, Poland", "global_code": "9F4RCW4P+WW"}, "rating": 4.8, "reference": "ChIJZ4WneD9bBEcRDCdwEptH7ho", "scope": "GOOGLE", "types": ["art_gallery", "point_of_interest", "establishment"], "user_ratings_total": 20, "vicinity": "4, Wodna 13, Pozna\u0144", "time_text": "12 mins", "time_sec": 705}, {"business_status": "OPERATIONAL", "geometry": {"location": {"lat": 52.4065609, "lng": 16.937482}, "viewport": {"northeast": {"lat": 52.4079015802915, "lng": 16.9389569802915}, "southwest": {"lat": 52.4052036197085, "lng": 16.9362590197085}}}, "icon": "https://maps.gstatic.com/mapfiles/place_api/icons/shopping-71.png", "name": "Ksi\u0119garnia Alchemik - BOHEMA Pozna\u0144", "opening_hours": {"open_now": false}, "photos": [{"height": 960, "html_attributions": ["<a href=\"https://maps.google.com/maps/contrib/115099631381936439723\">Ksi\u0119garnia Alchemik - BOHEMA Pozna\u0144</a>"], "photo_reference": "CkQ0AAAA7o7DqHwVHZZCaZdrTX1eKN--hVSoL0E4yLfPzdcmTsHcm8kp38v6tjLW3Z1gnWXhsmEEysR12qnP1UA6EpRAzhIQ3lt1VGdlAgSko3yfyDqkLBoUn5IlmHCPmS4zcrUfuo857_jm60A", "width": 720}], "place_id": "ChIJc1OiR-tbBEcRSGdDig_KLm4", "plus_code": {"compound_code": "CW4P+JX Pozna\u0144, Poland", "global_code": "9F4RCW4P+JX"}, "rating": 4.1, "reference": "ChIJc1OiR-tbBEcRSGdDig_KLm4", "scope": "GOOGLE", "types": ["book_store", "art_gallery", "health", "point_of_interest", "store", "establishment"], "user_ratings_total": 17, "vicinity": "Garbary 49, Pozna\u0144", "time_text": "13 mins", "time_sec": 786}, {"business_status": "OPERATIONAL", "geometry": {"location": {"lat": 52.4078192, "lng": 16.9403551}, "viewport": {"northeast": {"lat": 52.4090211802915, "lng": 16.9415871302915}, "southwest": {"lat": 52.4063232197085, "lng": 16.93888916970849}}}, "icon": "https://maps.gstatic.com/mapfiles/place_api/icons/generic_business-71.png", "name": "Nowa Gazownia", "photos": [{"height": 600, "html_attributions": ["<a href=\"https://maps.google.com/maps/contrib/116411050321160323876\">Pawilon</a>"], "photo_reference": "CkQ0AAAAmL3vmocdokM8z8XwaCj8hJ5LJUBnQ7bLCRbrA2eQLxqaQWkfUwroU5JhI16DIDmOW5IWL4hISOlKA1TNfTHoDBIQMrHJvKVfSsvFasXIV-0XURoUYilzoNYZuyFn2Dtc1dm127Gh1NA", "width": 900}], "place_id": "ChIJ_zBMDkBbBEcRliVJgK85H1s", "plus_code": {"compound_code": "CW5R+44 Pozna\u0144, Poland", "global_code": "9F4RCW5R+44"}, "rating": 4.6, "reference": "ChIJ_zBMDkBbBEcRliVJgK85H1s", "scope": "GOOGLE", "types": ["art_gallery", "point_of_interest", "establishment"], "user_ratings_total": 115, "vicinity": "Ewangelicka 1, Pozna\u0144", "time_text": "15 mins", "time_sec": 922}, {"business_status": "OPERATIONAL", "geometry": {"location": {"lat": 52.4077388, "lng": 16.931427}, "viewport": {"northeast": {"lat": 52.40912888029149, "lng": 16.9327815802915}, "southwest": {"lat": 52.40643091970849, "lng": 16.93008361970849}}}, "icon": "https://maps.gstatic.com/mapfiles/place_api/icons/shopping-71.png", "name": "Antykwariat", "opening_hours": {"open_now": false}, "photos": [{"height": 2736, "html_attributions": ["<a href=\"https://maps.google.com/maps/contrib/107034575728855557120\">MARCIN LAMMERS</a>"], "photo_reference": "CkQ0AAAAQWyVIZcb5-QYKVTW2qs8tzfNZh5qE_rXNU7D8WlhevEzlCvDdDisF49aZraaT56LXbowS2NC8I8bZqDgcg6mYRIQPQug-6-24DatG7gl0M_DPRoUBuLfoUqu4dMOO1zYiDI5GUgBP5E", "width": 3648}], "place_id": "ChIJrQmllkBbBEcRwa764olp6AI", "plus_code": {"compound_code": "CW5J+3H Pozna\u0144, Poland", "global_code": "9F4RCW5J+3H"}, "rating": 4.3, "reference": "ChIJrQmllkBbBEcRwa764olp6AI", "scope": "GOOGLE", "types": ["book_store", "point_of_interest", "store", "establishment"], "user_ratings_total": 136, "vicinity": "Paderewskiego 3/5, Pozna\u0144", "time_text": "7 mins", "time_sec": 421}, {"business_status": "OPERATIONAL", "geometry": {"location": {"lat": 52.40634799999999, "lng": 16.9241637}, "viewport": {"northeast": {"lat": 52.40777928029149, "lng": 16.92554468029151}, "southwest": {"lat": 52.4050813197085, "lng": 16.9228467197085}}}, "icon": "https://maps.gstatic.com/mapfiles/place_api/icons/shopping-71.png", "name": "Ksi\u0119garnia Omnibus", "opening_hours": {"open_now": false}, "photos": [{"height": 1099, "html_attributions": ["<a href=\"https://maps.google.com/maps/contrib/109015222424755111811\">Bookland | Ksi\u0119garnia J\u0119zykowo-Edukacyjna Pozna\u0144</a>"], "photo_reference": "CkQ0AAAAdmZiLBApV3fxbVQhIM4BPUDIWfcpkh4-Z9f5AemTEn0DM4Gr7uKmo5jAoY74EgPuIn_nLYH_to-xL5jK1juQaBIQvtEeBP0mZAzBBJ3qNI4v5hoUXk1eqKwjILqskWiOaKFlHb7yAgA", "width": 1886}], "place_id": "ChIJGxoBfTdbBEcRPtzkCPaH1Kg", "plus_code": {"compound_code": "CW4F+GM Pozna\u0144, Poland", "global_code": "9F4RCW4F+GM"}, "rating": 4.5, "reference": "ChIJGxoBfTdbBEcRPtzkCPaH1Kg", "scope": "GOOGLE", "types": ["book_store", "point_of_interest", "store", "establishment"], "user_ratings_total": 54, "vicinity": "ul, \u015awi\u0119ty Marcin 39, Pozna\u0144", "time_text": "6 mins", "time_sec": 335}, {"business_status": "OPERATIONAL", "geometry": {"location": {"lat": 52.4011496, "lng": 16.92814049999999}, "viewport": {"northeast": {"lat": 52.4022956302915, "lng": 16.9296188302915}, "southwest": {"lat": 52.39959766970851, "lng": 16.92692086970849}}}, "icon": "https://maps.gstatic.com/mapfiles/place_api/icons/shopping-71.png", "name": "Empik", "opening_hours": {"open_now": true}, "photos": [{"height": 4032, "html_attributions": ["<a href=\"https://maps.google.com/maps/contrib/110058867068528885845\">Hanna Zaremba</a>"], "photo_reference": "CkQ0AAAAi4DSr0W1rqRgzKx6CqdJUcqVWoKphC55Y-xH8ZZGYB2eMCQAUcw2Ge1yqp5l6p_d0eL0uQAbxV8jviinXGIYVBIQs2SFhhzD0I91ET-6_DrReBoU3Eey7XIFjAdTeVUdQCQkBVpypIU", "width": 3024}], "place_id": "ChIJ83meSzpbBEcRq4uQY-6kghw", "plus_code": {"compound_code": "CW2H+F7 Pozna\u0144, Poland", "global_code": "9F4RCW2H+F7"}, "rating": 4.5, "reference": "ChIJ83meSzpbBEcRq4uQY-6kghw", "scope": "GOOGLE", "types": ["book_store", "electronics_store", "point_of_interest", "store", "establishment"], "user_ratings_total": 445, "vicinity": "P\u00f3\u0142wiejska 42, Pozna\u0144", "time_text": "15 mins", "time_sec": 913}, {"business_status": "OPERATIONAL", "geometry": {"location": {"lat": 52.4073401, "lng": 16.935601}, "viewport": {"northeast": {"lat": 52.40870083029149, "lng": 16.9370953302915}, "southwest": {"lat": 52.40600286970849, "lng": 16.9343973697085}}}, "icon": "https://maps.gstatic.com/mapfiles/place_api/icons/shopping-71.png", "name": "Staromiejska. Ksi\u0119garnia", "opening_hours": {"open_now": false}, "photos": [{"height": 3120, "html_attributions": ["<a href=\"https://maps.google.com/maps/contrib/118236503355051329447\">Jan Boromeusz</a>"], "photo_reference": "CkQ0AAAAl14yLF51gdputxicldWlmj_Mxo4DmPlLThplG3YPFFBpeAaUPe-SeqqnxVr4pujTRNX9IuENlbXmOylPt5a7hBIQQcGbt1FU6mK3MK1uA2X4_hoUMqYOkOLujM4cJC_Ua2YDhSEWTbo", "width": 4160}], "place_id": "ChIJ3cA6Zj9bBEcRGhOYQjW4StY", "plus_code": {"compound_code": "CW4P+W6 Pozna\u0144, Poland", "global_code": "9F4RCW4P+W6"}, "rating": 4.4, "reference": "ChIJ3cA6Zj9bBEcRGhOYQjW4StY", "scope": "GOOGLE", "types": ["book_store", "point_of_interest", "store", "establishment"], "user_ratings_total": 10, "vicinity": "Wodna 23, Pozna\u0144", "time_text": "10 mins", "time_sec": 626}, {"business_status": "OPERATIONAL", "geometry": {"location": {"lat": 52.4098957, "lng": 16.9367524}, "viewport": {"northeast": {"lat": 52.4112524802915, "lng": 16.9380195802915}, "southwest": {"lat": 52.4085545197085, "lng": 16.9353216197085}}}, "icon": "https://maps.gstatic.com/mapfiles/place_api/icons/shopping-71.png", "name": "Wie\u017ca. Ksi\u0119garnia", "opening_hours": {"open_now": false}, "photos": [{"height": 4608, "html_attributions": ["<a href=\"https://maps.google.com/maps/contrib/113881103395836224471\">\u0141ukasz Zieli\u0144ski</a>"], "photo_reference": "CkQzAAAARuvpDfWb6a01o-_PcQnBxU48Lbqw5etWSz3Wzp1evs-dSseXy1zIdscZsjFmgp4UV4lIlYzUKtVIZjBvnH8JbhIQMDtge-bgPN4QarhUGozD7BoUWvhg7HdA8rV0HK76UMy5sJRowT8", "width": 3456}], "place_id": "ChIJx1yzwkBbBEcRoCk2D6-u8OU", "plus_code": {"compound_code": "CW5P+XP Pozna\u0144, Poland", "global_code": "9F4RCW5P+XP"}, "rating": 3, "reference": "ChIJx1yzwkBbBEcRoCk2D6-u8OU", "scope": "GOOGLE", "types": ["book_store", "point_of_interest", "store", "establishment"], "user_ratings_total": 1, "vicinity": "Szewska 18, Pozna\u0144", "time_text": "12 mins", "time_sec": 702}, {"business_status": "OPERATIONAL", "geometry": {"location": {"lat": 52.40887499999999, "lng": 16.920295}, "viewport": {"northeast": {"lat": 52.4102640302915, "lng": 16.9217280302915}, "southwest": {"lat": 52.4075660697085, "lng": 16.9190300697085}}}, "icon": "https://maps.gstatic.com/mapfiles/place_api/icons/generic_business-71.png", "name": "ZEMSTA", "opening_hours": {"open_now": false}, "photos": [{"height": 4000, "html_attributions": ["<a href=\"https://maps.google.com/maps/contrib/105079114590929935719\">ZEMSTA</a>"], "photo_reference": "CkQ0AAAADxZg6_KT9Vc4FBxCXcyHCij5xwsU_LNAkgLFyGiq7NN6Kdk5u5fU_tfpH2-yKXGiPnRO-dk5MiNFMDvJ1AGVKhIQwBk7Wdv3cca_TCyax6eZHBoUAKr63QJmsDZ_CN2j1JnRldHZwxQ", "width": 6000}], "place_id": "ChIJZSc3PzZbBEcRw-nXU8YWExs", "plus_code": {"compound_code": "CW5C+G4 Pozna\u0144, Poland", "global_code": "9F4RCW5C+G4"}, "price_level": 1, "rating": 4.7, "reference": "ChIJZSc3PzZbBEcRw-nXU8YWExs", "scope": "GOOGLE", "types": ["art_gallery", "book_store", "restaurant", "food", "point_of_interest", "store", "establishment"], "user_ratings_total": 313, "vicinity": "Fredry 5, Pozna\u0144", "time_text": "4 mins", "time_sec": 258}, {"business_status": "OPERATIONAL", "geometry": {"location": {"lat": 52.40832589999999, "lng": 16.9199974}, "viewport": {"northeast": {"lat": 52.40968628029149, "lng": 16.9212145802915}, "southwest": {"lat": 52.4069883197085, "lng": 16.9185166197085}}}, "icon": "https://maps.gstatic.com/mapfiles/place_api/icons/shopping-71.png", "name": "S\u0142owo i Przestrze\u0144", "place_id": "ChIJV4YfNE29BEcRgWB2r2_7WfQ", "plus_code": {"compound_code": "CW59+8X Pozna\u0144, Poland", "global_code": "9F4RCW59+8X"}, "reference": "ChIJV4YfNE29BEcRgWB2r2_7WfQ", "scope": "GOOGLE", "types": ["book_store", "point_of_interest", "store", "establishment"], "vicinity": "Ko\u015bciuszki 84, Pozna\u0144", "time_text": "6 mins", "time_sec": 351}, {"business_status": "OPERATIONAL", "geometry": {"location": {"lat": 52.4094027, "lng": 16.9247067}, "viewport": {"northeast": {"lat": 52.41079528029151, "lng": 16.92601223029151}, "southwest": {"lat": 52.40809731970851, "lng": 16.9233142697085}}}, "icon": "https://maps.gstatic.com/mapfiles/place_api/icons/cafe-71.png", "name": "KAHAWA Kawa i Ksi\u0105\u017cka", "opening_hours": {"open_now": true}, "photos": [{"height": 3024, "html_attributions": ["<a href=\"https://maps.google.com/maps/contrib/111254545157930426768\">KAHAWA Kawa i Ksi\u0105\u017cka</a>"], "photo_reference": "CkQ0AAAA0mwDHHP9Adkwpwp16q7BBbyntgjMXN6qa3q2T5SumqJ29LOegvX9GB8fz8wCP8Bm6VsTVpsHbe1gNkfeHoCxnBIQsJGbE8OzaGk_HvMJ2fEb0hoUC5GD8iSoT-EAGrjBjAo_Gf4_zkQ", "width": 4032}], "place_id": "ChIJp5rJ4TdbBEcRvAhiqAtD8OY", "plus_code": {"compound_code": "CW5F+QV Pozna\u0144, Poland", "global_code": "9F4RCW5F+QV"}, "price_level": 2, "rating": 4.7, "reference": "ChIJp5rJ4TdbBEcRvAhiqAtD8OY", "scope": "GOOGLE", "types": ["book_store", "cafe", "food", "point_of_interest", "store", "establishment"], "user_ratings_total": 481, "vicinity": "plac Ratajskiego 10d, Pozna\u0144", "time_text": "1 min", "time_sec": 16}, {"business_status": "OPERATIONAL", "geometry": {"location": {"lat": 52.4081823, "lng": 16.925479}, "viewport": {"northeast": {"lat": 52.4095321802915, "lng": 16.9266771802915}, "southwest": {"lat": 52.4068342197085, "lng": 16.9239792197085}}}, "icon": "https://maps.gstatic.com/mapfiles/place_api/icons/shopping-71.png", "name": "Empik", "opening_hours": {"open_now": true}, "photos": [{"height": 2988, "html_attributions": ["<a href=\"https://maps.google.com/maps/contrib/114975353033498948433\">Piotr Latasiewicz</a>"], "photo_reference": "CkQ0AAAAw-eExkI3M5mHVNl1NfA53--UMKWvnYPR5Frn3NHwU1268wzwyHOm3MYde4N0SAvO3qMsvXG8cpzHrkLZ_yKADxIQ7b6R-lEK0iM3q4jk5_-dmRoUMelv8a5XD2lDrHwlLvN59cqU1cg", "width": 5312}], "place_id": "ChIJwyNw9TdbBEcRR1l9OypwgxI", "plus_code": {"compound_code": "CW5G+75 Pozna\u0144, Poland", "global_code": "9F4RCW5G+75"}, "rating": 4.4, "reference": "ChIJwyNw9TdbBEcRR1l9OypwgxI", "scope": "GOOGLE", "types": ["book_store", "electronics_store", "point_of_interest", "store", "establishment"], "user_ratings_total": 2152, "vicinity": "Ratajczaka 44, Pozna\u0144", "time_text": "2 mins", "time_sec": 124}, {"business_status": "OPERATIONAL", "geometry": {"location": {"lat": 52.4065605, "lng": 16.9234847}, "viewport": {"northeast": {"lat": 52.40796898029149, "lng": 16.9248620802915}, "southwest": {"lat": 52.4052710197085, "lng": 16.9221641197085}}}, "icon": "https://maps.gstatic.com/mapfiles/place_api/icons/shopping-71.png", "name": "Bonito.pl", "opening_hours": {"open_now": false}, "photos": [{"height": 2560, "html_attributions": ["<a href=\"https://maps.google.com/maps/contrib/106453734209405064219\">Bonito.pl</a>"], "photo_reference": "CkQ0AAAAEAQY9_DnbzjnQoU6kFHGm1317kVaUeVS0L-TBlOon4TvToQjKSvQD-LxZYaMh56mNfnL2Na6O4CmSOYYm2KOFBIQ_Yc8I9Br1KQc64QzBdp_CxoURZTBH0C0ECHuiVJr6wTaUYvC5LM", "width": 3840}], "place_id": "ChIJHYEAcTdbBEcRTQBegC-j5yg", "plus_code": {"compound_code": "CW4F+J9 Pozna\u0144, Poland", "global_code": "9F4RCW4F+J9"}, "rating": 4.6, "reference": "ChIJHYEAcTdbBEcRTQBegC-j5yg", "scope": "GOOGLE", "types": ["book_store", "point_of_interest", "store", "establishment"], "user_ratings_total": 129, "vicinity": "\u015awi\u0119ty Marcin 47, Pozna\u0144", "time_text": "6 mins", "time_sec": 379}, {"business_status": "OPERATIONAL", "geometry": {"location": {"lat": 52.40729020000001, "lng": 16.9203981}, "viewport": {"northeast": {"lat": 52.4086024802915, "lng": 16.9217312302915}, "southwest": {"lat": 52.4059045197085, "lng": 16.9190332697085}}}, "icon": "https://maps.gstatic.com/mapfiles/place_api/icons/shopping-71.png", "name": "Ksi\u0119garnia TAK", "opening_hours": {"open_now": false}, "photos": [{"height": 4032, "html_attributions": ["<a href=\"https://maps.google.com/maps/contrib/102094690299937045280\">Michal Pa</a>"], "photo_reference": "CkQ0AAAARfcAhUq2YruzWl4l03-Q7wL-lEcFVuGv_fhZCigCaedIFdajqJEeKNCQfrBFfKeAVGC9brenvZcO5kQWL0-HeBIQKmNd0RoCXwSYSG8-Uv4dxxoUzIYmVlCR2ZSE4tCy5RTGO0ma8pk", "width": 3024}], "place_id": "ChIJfbt6tjlbBEcRvZNPLKvWnwU", "plus_code": {"compound_code": "CW4C+W5 Pozna\u0144, Poland", "global_code": "9F4RCW4C+W5"}, "rating": 4.8, "reference": "ChIJfbt6tjlbBEcRvZNPLKvWnwU", "scope": "GOOGLE", "types": ["book_store", "point_of_interest", "store", "establishment"], "user_ratings_total": 126, "vicinity": "\u015awi\u0119ty Marcin 76, Pozna\u0144", "time_text": "6 mins", "time_sec": 331}, {"business_status": "OPERATIONAL", "geometry": {"location": {"lat": 52.4075818, "lng": 16.9287703}, "viewport": {"northeast": {"lat": 52.40903628029149, "lng": 16.9301098802915}, "southwest": {"lat": 52.4063383197085, "lng": 16.9274119197085}}}, "icon": "https://maps.gstatic.com/mapfiles/place_api/icons/shopping-71.png", "name": "Ksi\u0119garnia \u015awi\u0119tego Wojciecha", "opening_hours": {"open_now": false}, "photos": [{"height": 360, "html_attributions": ["<a href=\"https://maps.google.com/maps/contrib/115244169722377306123\">Ksi\u0119garnia \u015awi\u0119tego Wojciecha</a>"], "photo_reference": "CkQ0AAAAVU9vLikkrzrJx4QmjixsHSlAeYeILFI3yPJMvIKPeqtpOMtMnh4AulHqB1F-12NjIn8BiSUCkxsCkQAFL5PplhIQjRoZncdlrmWavhdM5CgkZBoUFW8qpcLREF0jZbtsI8Nh-C8MK1I", "width": 720}], "place_id": "ChIJD1F5aDhbBEcRB3tX_BeC2a4", "plus_code": {"compound_code": "CW5H+2G Pozna\u0144, Poland", "global_code": "9F4RCW5H+2G"}, "rating": 4.6, "reference": "ChIJD1F5aDhbBEcRB3tX_BeC2a4", "scope": "GOOGLE", "types": ["book_store", "point_of_interest", "store", "establishment"], "user_ratings_total": 231, "vicinity": "plac Wolno\u015bci 1, Pozna\u0144", "time_text": "5 mins", "time_sec": 327}, {"business_status": "OPERATIONAL", "geometry": {"location": {"lat": 52.4079736, "lng": 16.9193461}, "viewport": {"northeast": {"lat": 52.40901338029149, "lng": 16.9206476802915}, "southwest": {"lat": 52.4063154197085, "lng": 16.91794971970849}}}, "icon": "https://maps.gstatic.com/mapfiles/place_api/icons/shopping-71.png", "name": "Bookowski", "opening_hours": {"open_now": true}, "photos": [{"height": 3024, "html_attributions": ["<a href=\"https://maps.google.com/maps/contrib/103930632917060454275\">Bookowski</a>"], "photo_reference": "CkQ0AAAAazev83xEZdkbLaE5D9D_iqY5_y4LfqtW0hecbvbFVG6-mLjrRzCMWcWevhFgxbJnPvDKIkFanNqoQDrF-EKtHhIQ0-2f_FXZDBQV63MR6yLudBoUa9U0ux5v0o2-yFZon56kflQNrS0", "width": 4032}], "place_id": "ChIJNdPPXTZbBEcRdKuFxmyaNwM", "plus_code": {"compound_code": "CW59+5P Pozna\u0144, Poland", "global_code": "9F4RCW59+5P"}, "rating": 4.8, "reference": "ChIJNdPPXTZbBEcRdKuFxmyaNwM", "scope": "GOOGLE", "types": ["book_store", "point_of_interest", "store", "establishment"], "user_ratings_total": 13, "vicinity": "\u015awi\u0119ty Marcin 80/82, Pozna\u0144", "time_text": "6 mins", "time_sec": 385}, {"business_status": "OPERATIONAL", "geometry": {"location": {"lat": 52.4058206, "lng": 16.925195}, "viewport": {"northeast": {"lat": 52.40718718029149, "lng": 16.9264343802915}, "southwest": {"lat": 52.4044892197085, "lng": 16.92373641970849}}}, "icon": "https://maps.gstatic.com/mapfiles/place_api/icons/shopping-71.png", "name": "KSI\u0118GARNIA MUZYCZNA PASJA", "opening_hours": {"open_now": false}, "photos": [{"height": 3520, "html_attributions": ["<a href=\"https://maps.google.com/maps/contrib/102094690299937045280\">Michal Pa</a>"], "photo_reference": "CkQ0AAAAYE_OX3wZKM7W5N5U3ZhCp94Ms792MiRkjhLRbIbaurF5Nb1qRBvGKCME89EHnj2tynHtWe2FgnybldfEGrL-wxIQBYLxB8xLgsnJxMFKkfJ8IhoUp2bPNw5eVmw-uj-S7-EyCn0XFpg", "width": 2964}], "place_id": "ChIJ1zvDxDlbBEcRAtSFxwi0DBQ", "plus_code": {"compound_code": "CW4G+83 Pozna\u0144, Poland", "global_code": "9F4RCW4G+83"}, "rating": 4.8, "reference": "ChIJ1zvDxDlbBEcRAtSFxwi0DBQ", "scope": "GOOGLE", "types": ["book_store", "point_of_interest", "store", "establishment"], "user_ratings_total": 22, "vicinity": "Ratajczaka 30, Pozna\u0144", "time_text": "6 mins", "time_sec": 335}, {"business_status": "OPERATIONAL", "geometry": {"location": {"lat": 52.4061501, "lng": 16.9277632}, "viewport": {"northeast": {"lat": 52.4074231802915, "lng": 16.92909218029151}, "southwest": {"lat": 52.4047252197085, "lng": 16.9263942197085}}}, "icon": "https://maps.gstatic.com/mapfiles/place_api/icons/shopping-71.png", "name": "Ksi\u0119garnia \u015awiat Ksi\u0105\u017cki", "opening_hours": {"open_now": false}, "photos": [{"height": 3016, "html_attributions": ["<a href=\"https://maps.google.com/maps/contrib/100331435835123354926\">mylittle vlog</a>"], "photo_reference": "CkQ0AAAAeXuslF6C0eHfFgpjZS3FHCrlbHMGtDKWPef4qX3TLGbzHnhsJQimNsl6-SPppXRQHqlEwjDsPsVn-_kUo9iX4xIQHfeWuh7a5aYI-ORM3OmKDhoUlCnywk-BybEPkxlbmZdGguyskTQ", "width": 4032}], "place_id": "ChIJhShZACNbBEcRCyDAC9uqsdE", "plus_code": {"compound_code": "CW4H+F4 Pozna\u0144, Poland", "global_code": "9F4RCW4H+F4"}, "rating": 5, "reference": "ChIJhShZACNbBEcRCyDAC9uqsdE", "scope": "GOOGLE", "types": ["book_store", "point_of_interest", "store", "establishment"], "user_ratings_total": 6, "vicinity": "ul. \u015aw. Marcin 24, Pozna\u0144", "time_text": "7 mins", "time_sec": 414}, {"business_status": "OPERATIONAL", "geometry": {"location": {"lat": 52.407596, "lng": 16.933656}, "viewport": {"northeast": {"lat": 52.4090396802915, "lng": 16.93465445}, "southwest": {"lat": 52.4063417197085, "lng": 16.93070145}}}, "icon": "https://maps.gstatic.com/mapfiles/place_api/icons/shopping-71.png", "name": "Arsenal. The book company", "opening_hours": {"open_now": true}, "photos": [{"height": 2448, "html_attributions": ["<a href=\"https://maps.google.com/maps/contrib/117204896637407342958\">Piotr \u017burkowski</a>"], "photo_reference": "CkQ0AAAACcntvSsudw0QxZYGJiMwINodhS8-RpFI9HgRBu_2UjPSRtBZvb_QNo5YSpM8PyztIH9ZaVp655GNBqTSAtqLrxIQLjAuCDFlli2gLFSSFjPjqxoUBNYrB78OlOgx-9WCjpRxQRRW8qs", "width": 3264}], "place_id": "ChIJFSCBqzhbBEcRoPQQ-MhPfpw", "plus_code": {"compound_code": "CW5M+2F Pozna\u0144, Poland", "global_code": "9F4RCW5M+2F"}, "rating": 4.3, "reference": "ChIJFSCBqzhbBEcRoPQQ-MhPfpw", "scope": "GOOGLE", "types": ["book_store", "point_of_interest", "store", "establishment"], "user_ratings_total": 64, "vicinity": "Stary Rynek 58, Pozna\u0144", "time_text": "9 mins", "time_sec": 527}, {"business_status": "OPERATIONAL", "geometry": {"location": {"lat": 52.4072379, "lng": 16.9364782}, "viewport": {"northeast": {"lat": 52.4086184302915, "lng": 16.9378347302915}, "southwest": {"lat": 52.4059204697085, "lng": 16.9351367697085}}}, "icon": "https://maps.gstatic.com/mapfiles/place_api/icons/shopping-71.png", "name": "Yatta", "opening_hours": {"open_now": false}, "photos": [{"height": 3456, "html_attributions": ["<a href=\"https://maps.google.com/maps/contrib/100809611291663042555\">\u0141ukasz Grzenia</a>"], "photo_reference": "CkQ0AAAAuDWCj0E_hOydgmBVqpYfYlX9SAE4bs6rVekjG8Z8VnsvDVjhhjHOdjp-MBBjU8X1zTbEHl0LMvvOPSKWGjE7pRIQVB88cE1JZLVp56RBAg7iEhoUAxRTxbBAwrt6SGAxQjBNShaIVrY", "width": 4608}], "place_id": "ChIJkYHwej9bBEcRXO2J7Mgs-a4", "plus_code": {"compound_code": "CW4P+VH Pozna\u0144, Poland", "global_code": "9F4RCW4P+VH"}, "rating": 4.7, "reference": "ChIJkYHwej9bBEcRXO2J7Mgs-a4", "scope": "GOOGLE", "types": ["book_store", "point_of_interest", "store", "establishment"], "user_ratings_total": 287, "vicinity": "Wodna 17/19, Pozna\u0144", "time_text": "11 mins", "time_sec": 668}, {"business_status": "OPERATIONAL", "geometry": {"location": {"lat": 52.4065609, "lng": 16.937482}, "viewport": {"northeast": {"lat": 52.4079015802915, "lng": 16.9389569802915}, "southwest": {"lat": 52.4052036197085, "lng": 16.9362590197085}}}, "icon": "https://maps.gstatic.com/mapfiles/place_api/icons/shopping-71.png", "name": "Ksi\u0119garnia Alchemik - BOHEMA Pozna\u0144", "opening_hours": {"open_now": false}, "photos": [{"height": 960, "html_attributions": ["<a href=\"https://maps.google.com/maps/contrib/115099631381936439723\">Ksi\u0119garnia Alchemik - BOHEMA Pozna\u0144</a>"], "photo_reference": "CkQ0AAAAkybTE5D81XfYyVdhXJSjRlZXaSmX1n6mGb1Odt0OyKboz-dDdxRwmCIl4Rg8GxLfbXu0p35RwCSqT59SNIUBCRIQgwPL5OVX4oS_fspc1uph7xoUy7M-mYhkv1rzq86F23FTHMMTzmo", "width": 720}], "place_id": "ChIJc1OiR-tbBEcRSGdDig_KLm4", "plus_code": {"compound_code": "CW4P+JX Pozna\u0144, Poland", "global_code": "9F4RCW4P+JX"}, "rating": 4.1, "reference": "ChIJc1OiR-tbBEcRSGdDig_KLm4", "scope": "GOOGLE", "types": ["book_store", "art_gallery", "health", "point_of_interest", "store", "establishment"], "user_ratings_total": 17, "vicinity": "Garbary 49, Pozna\u0144", "time_text": "13 mins", "time_sec": 786}, {"business_status": "OPERATIONAL", "geometry": {"location": {"lat": 52.4021636, "lng": 16.9139994}, "viewport": {"northeast": {"lat": 52.4035125802915, "lng": 16.9153483802915}, "southwest": {"lat": 52.4008146197085, "lng": 16.9126504197085}}}, "icon": "https://maps.gstatic.com/mapfiles/place_api/icons/shopping-71.png", "name": "Ksi\u0119garnia \u015awiat Ksi\u0105\u017cki", "opening_hours": {"open_now": false}, "photos": [{"height": 1920, "html_attributions": ["<a href=\"https://maps.google.com/maps/contrib/114080191542124609203\">Jaros\u0142aw Matuszewski</a>"], "photo_reference": "CkQ0AAAA6knVZduqPkhwquiIMzL6liS5MjeJf9yFbBgSBspcb_IbHcznGDGdP0pTK8Hml_DmyFD41f9omZuaOlGuNXkDSBIQFYmvBaSUBs2qexSvLn6A8RoUI3SxTrl3OHGdYe4D6x5z6OuMZpM", "width": 1080}], "place_id": "ChIJSzSreTFbBEcRauiHvEsKxGs", "plus_code": {"compound_code": "CW27+VH Pozna\u0144, Poland", "global_code": "9F4RCW27+VH"}, "rating": 4.4, "reference": "ChIJSzSreTFbBEcRauiHvEsKxGs", "scope": "GOOGLE", "types": ["book_store", "point_of_interest", "store", "establishment"], "user_ratings_total": 27, "vicinity": "Matyi 2, Pozna\u0144", "time_text": "19 mins", "time_sec": 1142}, {"business_status": "OPERATIONAL", "geometry": {"location": {"lat": 52.41316959999999, "lng": 16.90758629999999}, "viewport": {"northeast": {"lat": 52.4145602802915, "lng": 16.9089592802915}, "southwest": {"lat": 52.4118623197085, "lng": 16.90626131970849}}}, "icon": "https://maps.gstatic.com/mapfiles/place_api/icons/shopping-71.png", "name": "papierireszta.pl - ksi\u0119garnia internetowa", "opening_hours": {"open_now": false}, "place_id": "ChIJh5SjdrVEBEcRQDuYLOLM1xE", "plus_code": {"compound_code": "CW75+72 Pozna\u0144, Poland", "global_code": "9F4RCW75+72"}, "reference": "ChIJh5SjdrVEBEcRQDuYLOLM1xE", "scope": "GOOGLE", "types": ["book_store", "point_of_interest", "store", "establishment"], "vicinity": "Mansfelda 4, Pozna\u0144", "time_text": "19 mins", "time_sec": 1123}, {"business_status": "OPERATIONAL", "geometry": {"location": {"lat": 52.4070889, "lng": 16.9360111}, "viewport": {"northeast": {"lat": 52.40837408029149, "lng": 16.9373428802915}, "southwest": {"lat": 52.4056761197085, "lng": 16.93464491970849}}}, "icon": "https://maps.gstatic.com/mapfiles/place_api/icons/lodging-71.png", "name": "5 Kolegiacki Square in Pozna\u0144", "opening_hours": {"open_now": true}, "photos": [{"height": 2795, "html_attributions": ["<a href=\"https://maps.google.com/maps/contrib/104944558031303325701\">Hotel Kolegiacki</a>"], "photo_reference": "CkQ0AAAAT5HT4U_M7dtcPPmRMlcgw4tR58vvCaR-McT2gDUUfhQJ5jDCoYeiMmyeS5HjQUlUWBRDP8pVR_lDdg6wF29WhhIQbQtNvhvmNJGxU8bVs2KGwhoUF7BF0D16PDqxX7TpxMl20uybEUQ", "width": 4192}], "place_id": "ChIJpzm6bz9bBEcRvwb-C2_tF4Q", "plus_code": {"compound_code": "CW4P+RC Pozna\u0144, Poland", "global_code": "9F4RCW4P+RC"}, "rating": 4.5, "reference": "ChIJpzm6bz9bBEcRvwb-C2_tF4Q", "scope": "GOOGLE", "types": ["cafe", "lodging", "bar", "restaurant", "food", "point_of_interest", "establishment"], "user_ratings_total": 386, "vicinity": "plac Kolegiacki 5, Pozna\u0144", "time_text": "11 mins", "time_sec": 660}, {"business_status": "OPERATIONAL", "geometry": {"location": {"lat": 52.4076619, "lng": 16.935129}, "viewport": {"northeast": {"lat": 52.40886023029149, "lng": 16.9368319302915}, "southwest": {"lat": 52.4061622697085, "lng": 16.9341339697085}}}, "icon": "https://maps.gstatic.com/mapfiles/place_api/icons/cafe-71.png", "name": "Kamea", "opening_hours": {"open_now": false}, "photos": [{"height": 4000, "html_attributions": ["<a href=\"https://maps.google.com/maps/contrib/110989410968747905913\">Kamea</a>"], "photo_reference": "CkQ0AAAATsrwg2j2LsXhQAuOFMIyFusiEkKJBieWcIchZSVmIv5RxeqTIIgHqCkXuyii04MMlH5UxijBf2MeaR6_MNkwlBIQFTSoOdwJgddzup5_Cyf-hBoUscKQgcTVTRveY0ahg9TVjb-W-rs", "width": 6000}], "place_id": "ChIJZ0RtNkdbBEcReZaNes1bclw", "plus_code": {"compound_code": "CW5P+33 Pozna\u0144, Poland", "global_code": "9F4RCW5P+33"}, "price_level": 2, "rating": 4.6, "reference": "ChIJZ0RtNkdbBEcReZaNes1bclw", "scope": "GOOGLE", "types": ["cafe", "food", "point_of_interest", "establishment"], "user_ratings_total": 257, "vicinity": "Klasztorna 17/18, Pozna\u0144", "time_text": "10 mins", "time_sec": 620}, {"business_status": "OPERATIONAL", "geometry": {"location": {"lat": 52.4077233, "lng": 16.9307474}, "viewport": {"northeast": {"lat": 52.40913468029149, "lng": 16.9321025302915}, "southwest": {"lat": 52.40643671970849, "lng": 16.9294045697085}}}, "icon": "https://maps.gstatic.com/mapfiles/place_api/icons/restaurant-71.png", "name": "Zielona Weranda", "opening_hours": {"open_now": true}, "photos": [{"height": 1280, "html_attributions": ["<a href=\"https://maps.google.com/maps/contrib/100135302354002291208\">Zielona Weranda</a>"], "photo_reference": "CkQ0AAAAj-lffwudne9ddCKe0luBV_NwQ0QKa6uXdidowu9oSwv7Ygfkl9HGS7KBFWhW4azALNLVBS7hX0SOe6ljY_efgBIQXWZ9Fm43tgh7ZqGdE_KpuhoUv_IqaJEFE8F-tQiPcc2S9TJOpfk", "width": 1920}], "place_id": "ChIJBUn2SD9bBEcRThe9iausrn8", "plus_code": {"compound_code": "CW5J+37 Pozna\u0144, Poland", "global_code": "9F4RCW5J+37"}, "price_level": 2, "rating": 4.4, "reference": "ChIJBUn2SD9bBEcRThe9iausrn8", "scope": "GOOGLE", "types": ["restaurant", "cafe", "food", "point_of_interest", "establishment"], "user_ratings_total": 1762, "vicinity": "Paderewskiego 7, Pozna\u0144", "time_text": "7 mins", "time_sec": 392}, {"business_status": "OPERATIONAL", "geometry": {"location": {"lat": 52.406125, "lng": 16.9231686}, "viewport": {"northeast": {"lat": 52.4077030802915, "lng": 16.9247096302915}, "southwest": {"lat": 52.4050051197085, "lng": 16.92201166970849}}}, "icon": "https://maps.gstatic.com/mapfiles/place_api/icons/shopping-71.png", "name": "Sklep Fajowo.eu", "opening_hours": {"open_now": false}, "photos": [{"height": 1396, "html_attributions": ["<a href=\"https://maps.google.com/maps/contrib/117005691416942188230\">Sklep Fajowo.eu</a>"], "photo_reference": "CkQ0AAAATaaWbdLzXFlkX7Xxbb_Kmjk21l_gvbmyPi6EY5veIdzk0m5wrXRWvPjnz2ggQr4QozBi48e8KuDj2N6PEX_IchIQKryP-r3bZ_YLRt_r_ABfcRoUqTqlLx00wkOKSMqqOFnY0P4QHwU", "width": 2048}], "place_id": "ChIJT-XOcDdbBEcRX1cyBCVU7-E", "plus_code": {"compound_code": "CW4F+F7 Pozna\u0144, Poland", "global_code": "9F4RCW4F+F7"}, "rating": 4.7, "reference": "ChIJT-XOcDdbBEcRX1cyBCVU7-E", "scope": "GOOGLE", "types": ["cafe", "food", "health", "point_of_interest", "store", "establishment"], "user_ratings_total": 139, "vicinity": "Pasa\u017c 47 (dawniej, \u015awi\u0119ty Marcin, Pasa\u017c R\u00f3\u017cowy 47/Lokal 7A, Pozna\u0144", "time_text": "7 mins", "time_sec": 415}, {"business_status": "OPERATIONAL", "geometry": {"location": {"lat": 52.40754029999999, "lng": 16.9339818}, "viewport": {"northeast": {"lat": 52.40882373029149, "lng": 16.93685555}, "southwest": {"lat": 52.4061257697085, "lng": 16.93302095}}}, "icon": "https://maps.gstatic.com/mapfiles/place_api/icons/restaurant-71.png", "name": "Restauracja Ratuszova", "opening_hours": {"open_now": false}, "photos": [{"height": 734, "html_attributions": ["<a href=\"https://maps.google.com/maps/contrib/108709602534975263195\">Restauracja Ratuszova</a>"], "photo_reference": "CkQ0AAAAZCFIUt-NdkuGcJA4k4M21dvD2tdOUYyEYhj0ZFnCqVhwu8SEhvHkZxrxXzcE3yf6j8kXJVqOeUv8vaLCXTliZxIQ_Ii7CD21O5T_0Ju72h4qeRoUR6wEFgToYRb0FQl890vmcF2N1-4", "width": 1100}], "place_id": "ChIJaxfyUT9bBEcRP26il9WA75k", "plus_code": {"compound_code": "CW5M+2H Pozna\u0144, Poland", "global_code": "9F4RCW5M+2H"}, "price_level": 2, "rating": 4.6, "reference": "ChIJaxfyUT9bBEcRP26il9WA75k", "scope": "GOOGLE", "types": ["cafe", "bar", "restaurant", "food", "point_of_interest", "establishment"], "user_ratings_total": 1145, "vicinity": "Stary Rynek 55, Pozna\u0144", "time_text": "9 mins", "time_sec": 543}, {"business_status": "OPERATIONAL", "geometry": {"location": {"lat": 52.4091771, "lng": 16.9226592}, "viewport": {"northeast": {"lat": 52.4104564302915, "lng": 16.9241077802915}, "southwest": {"lat": 52.4077584697085, "lng": 16.9214098197085}}}, "icon": "https://maps.gstatic.com/mapfiles/place_api/icons/generic_business-71.png", "name": "U Przyjaci\u00f3\u0142. Teatr", "photos": [{"height": 3024, "html_attributions": ["<a href=\"https://maps.google.com/maps/contrib/116293288129538017423\">Jakub \u017berdzicki</a>"], "photo_reference": "CkQ0AAAABDJP6e3YHLNgOoJGEefZ3Nu6pI-YRyfD-O_ipZssvNZV_vFWkGTsxdqDDdXLuaV_MRxJoG84JZZh2f8QqQhHRhIQ9Kr2g7-uXEnO5YyFZ5kqyBoUV9_2aypmcAeXtvPi_GBp5qZOWiY", "width": 4032}], "place_id": "ChIJM0z70TdbBEcRHFklBvreJiU", "plus_code": {"compound_code": "CW5F+M3 Pozna\u0144, Poland", "global_code": "9F4RCW5F+M3"}, "price_level": 2, "rating": 4.8, "reference": "ChIJM0z70TdbBEcRHFklBvreJiU", "scope": "GOOGLE", "types": ["cafe", "food", "point_of_interest", "establishment"], "user_ratings_total": 793, "vicinity": "Miel\u017cy\u0144skiego 27/29, Pozna\u0144", "time_text": "2 mins", "time_sec": 101}, {"business_status": "OPERATIONAL", "geometry": {"location": {"lat": 52.4056827, "lng": 16.9220064}, "viewport": {"northeast": {"lat": 52.40696088029151, "lng": 16.92332253029151}, "southwest": {"lat": 52.40426291970851, "lng": 16.9206245697085}}}, "icon": "https://maps.gstatic.com/mapfiles/place_api/icons/generic_business-71.png", "name": "Shisha Club Gallery", "opening_hours": {"open_now": false}, "photos": [{"height": 720, "html_attributions": ["<a href=\"https://maps.google.com/maps/contrib/103899136812542396164\">Klub Galeria Shisha</a>"], "photo_reference": "CkQ0AAAAa-MouYGT6vqkzm8IjF3y-H9Pnh9kOM0MrqfX2J5lyuRA6eedb_i3XRZG715vNvI5K8Q43rRXBea_qJxrxywXYRIQpOq6uWk0TJHAivJxLeAGOxoUZbbwvObVgGRqC0qXqxia0XoUYXk", "width": 960}], "place_id": "ChIJreJxQDdbBEcRo5SUp-nBcfI", "plus_code": {"compound_code": "CW4C+7R Pozna\u0144, Poland", "global_code": "9F4RCW4C+7R"}, "rating": 4.3, "reference": "ChIJreJxQDdbBEcRo5SUp-nBcfI", "scope": "GOOGLE", "types": ["night_club", "cafe", "bar", "food", "point_of_interest", "establishment"], "user_ratings_total": 455, "vicinity": "Stanis\u0142awa Taczaka 15, Pozna\u0144", "time_text": "8 mins", "time_sec": 503}, {"business_status": "OPERATIONAL", "geometry": {"location": {"lat": 52.4048298, "lng": 16.9311896}, "viewport": {"northeast": {"lat": 52.4064040302915, "lng": 16.9324580802915}, "southwest": {"lat": 52.40370606970851, "lng": 16.9297601197085}}}, "icon": "https://maps.gstatic.com/mapfiles/place_api/icons/shopping-71.png", "name": "Yerba Mate", "opening_hours": {"open_now": false}, "photos": [{"height": 3464, "html_attributions": ["<a href=\"https://maps.google.com/maps/contrib/114571806362311248698\">Stenia Dobak</a>"], "photo_reference": "CkQ0AAAA3W2ubXuYt0R5LhdTRB55UWbIQhVVPVd6SQTUzi9WZ-8BPTH7GYLWTmGIjKGY9R97HiW-8FzNUuzw0HnA_CZ8gBIQWn84tNKySOtH2d-chuh2LxoUM5NPx7gG6qTkbWx1zcyKOPfHo88", "width": 4618}], "place_id": "ChIJm2nyNDlbBEcR6KVvtuVKqOw", "plus_code": {"compound_code": "CW3J+WF Pozna\u0144, Poland", "global_code": "9F4RCW3J+WF"}, "rating": 4.8, "reference": "ChIJm2nyNDlbBEcR6KVvtuVKqOw", "scope": "GOOGLE", "types": ["cafe", "food", "health", "point_of_interest", "store", "establishment"], "user_ratings_total": 64, "vicinity": "P\u00f3\u0142wiejska 3, Pozna\u0144", "time_text": "10 mins", "time_sec": 603}, {"business_status": "OPERATIONAL", "geometry": {"location": {"lat": 52.40226730000001, "lng": 16.9256536}, "viewport": {"northeast": {"lat": 52.4036162802915, "lng": 16.9270025802915}, "southwest": {"lat": 52.4009183197085, "lng": 16.9243046197085}}}, "icon": "https://maps.gstatic.com/mapfiles/place_api/icons/cafe-71.png", "name": "Empik Cafe", "photos": [{"height": 3016, "html_attributions": ["<a href=\"https://maps.google.com/maps/contrib/102004319594582128576\">Jaros Rias</a>"], "photo_reference": "CkQ0AAAA6Q3aIwPjlZDqgUsUnS2CztyUTsvNXHyzkMMVZzk2LZeXQ0ZWRgec3sN3lKhUh0PoGu90WbU1VGXsi9VmcRlPZxIQZpL5Hpv3WQsOrYIOPvIPehoUBcUcwEkd2AlKDuIYdwVIQzpy-yE", "width": 4032}], "place_id": "ChIJ83meSzpbBEcRTP0nont6vGk", "plus_code": {"compound_code": "CW2G+W7 Pozna\u0144, Poland", "global_code": "9F4RCW2G+W7"}, "rating": 4, "reference": "ChIJ83meSzpbBEcRTP0nont6vGk", "scope": "GOOGLE", "types": ["cafe", "food", "point_of_interest", "store", "establishment"], "user_ratings_total": 1, "vicinity": "P\u00f3\u0142wiejska 42, Pozna\u0144", "time_text": "11 mins", "time_sec": 648}, {"business_status": "OPERATIONAL", "geometry": {"location": {"lat": 52.4094624, "lng": 16.9339653}, "viewport": {"northeast": {"lat": 52.4108078302915, "lng": 16.9353468302915}, "southwest": {"lat": 52.4081098697085, "lng": 16.93264886970849}}}, "icon": "https://maps.gstatic.com/mapfiles/place_api/icons/cafe-71.png", "name": "Fanaberia", "place_id": "ChIJ6VXsSUdbBEcRly5ymsH6VxA", "plus_code": {"compound_code": "CW5M+QH Pozna\u0144, Poland", "global_code": "9F4RCW5M+QH"}, "rating": 5, "reference": "ChIJ6VXsSUdbBEcRly5ymsH6VxA", "scope": "GOOGLE", "types": ["cafe", "restaurant", "food", "point_of_interest", "establishment"], "user_ratings_total": 3, "vicinity": "Wroniecka 24, Pozna\u0144", "time_text": "9 mins", "time_sec": 529}, {"business_status": "OPERATIONAL", "geometry": {"location": {"lat": 52.41215, "lng": 16.9324644}, "viewport": {"northeast": {"lat": 52.41347753029149, "lng": 16.9337583802915}, "southwest": {"lat": 52.4107795697085, "lng": 16.9310604197085}}}, "icon": "https://maps.gstatic.com/mapfiles/place_api/icons/cafe-71.png", "name": "Piece of cake", "opening_hours": {"open_now": true}, "photos": [{"height": 2610, "html_attributions": ["<a href=\"https://maps.google.com/maps/contrib/111655451919991666099\">Lenz -</a>"], "photo_reference": "CkQ0AAAAy_Q3eMF9rDnex7hZkjHr2qdg6QamKOvtadih_r-KZGhOkNFMTaROjVDt32SogcCATuTdW2gOd-0BBlkjeVYSshIQZvIDXeYGvycnRHItQo-y5xoU3BAv84VBfWUQ8nxGQ_i3mnvxcVI", "width": 4640}], "place_id": "ChIJ3S-G0UBbBEcREu9sx0ZMlKk", "plus_code": {"compound_code": "CW6J+VX Pozna\u0144, Poland", "global_code": "9F4RCW6J+VX"}, "price_level": 2, "rating": 4.7, "reference": "ChIJ3S-G0UBbBEcREu9sx0ZMlKk", "scope": "GOOGLE", "types": ["bakery", "cafe", "food", "point_of_interest", "store", "establishment"], "user_ratings_total": 303, "vicinity": "\u015awi\u0119ty Wojciech 27, Pozna\u0144", "time_text": "11 mins", "time_sec": 671}, {"business_status": "OPERATIONAL", "geometry": {"location": {"lat": 52.4053608, "lng": 16.9219699}, "viewport": {"northeast": {"lat": 52.40679093029149, "lng": 16.9233565302915}, "southwest": {"lat": 52.4040929697085, "lng": 16.9206585697085}}}, "icon": "https://maps.gstatic.com/mapfiles/place_api/icons/cafe-71.png", "name": "Jad\u0142odajnia Caritas Archidiecezji Pozna\u0144skiej", "place_id": "ChIJZ0cfRzdbBEcRFi2rtqeKaM4", "plus_code": {"compound_code": "CW4C+4Q Pozna\u0144, Poland", "global_code": "9F4RCW4C+4Q"}, "rating": 4.7, "reference": "ChIJZ0cfRzdbBEcRFi2rtqeKaM4", "scope": "GOOGLE", "types": ["cafe", "food", "point_of_interest", "establishment"], "user_ratings_total": 10, "vicinity": "Stanis\u0142awa Taczaka 7, Pozna\u0144", "time_text": "8 mins", "time_sec": 498}, {"business_status": "OPERATIONAL", "geometry": {"location": {"lat": 52.4061056, "lng": 16.9274098}, "viewport": {"northeast": {"lat": 52.40741723029149, "lng": 16.9287489302915}, "southwest": {"lat": 52.4047192697085, "lng": 16.9260509697085}}}, "icon": "https://maps.gstatic.com/mapfiles/place_api/icons/cafe-71.png", "name": "Eurocafe", "opening_hours": {"open_now": true}, "photos": [{"height": 1918, "html_attributions": ["<a href=\"https://maps.google.com/maps/contrib/112187392521816900591\">Wojciech Knitter</a>"], "photo_reference": "CkQ0AAAAyOhk-vNM5fWU4mzxJnI-Zh1cKXpp9Ldd4RXe7w9wDirBdZb4XxH42h1MdBiIV9QtiLCWxe_ajiCak53cwgcUrBIQ4gekRLrIBZV-RNcIJ4t3exoUpCAYNumQlPZ8nxGc0eWVdMev1_c", "width": 1690}], "place_id": "ChIJ0RN0rDlbBEcRIgdkEbC8pmc", "plus_code": {"compound_code": "CW4G+CX Pozna\u0144, Poland", "global_code": "9F4RCW4G+CX"}, "rating": 3.9, "reference": "ChIJ0RN0rDlbBEcRIgdkEbC8pmc", "scope": "GOOGLE", "types": ["cafe", "food", "point_of_interest", "establishment"], "user_ratings_total": 66, "vicinity": "Galeria MM, \u015awi\u0119ty Marcin 24, Pozna\u0144", "time_text": "7 mins", "time_sec": 398}, {"business_status": "OPERATIONAL", "geometry": {"location": {"lat": 52.4101958, "lng": 16.9102524}, "viewport": {"northeast": {"lat": 52.4114989802915, "lng": 16.9115766802915}, "southwest": {"lat": 52.4088010197085, "lng": 16.9088787197085}}}, "icon": "https://maps.gstatic.com/mapfiles/place_api/icons/restaurant-71.png", "name": "Alkohole z dusz\u0105", "opening_hours": {"open_now": false}, "photos": [{"height": 720, "html_attributions": ["<a href=\"https://maps.google.com/maps/contrib/117336359895040979108\">Alkohole z dusz\u0105</a>"], "photo_reference": "CkQ0AAAA65cd8Li2VWQgNHrtfve3KqofNnPEVL_1el_E8CWZoYhMH9taQ9SkH0vY85DPpI0B1-xqfg95gAP-2LBpOc2pvxIQehWnbeL88PNn75Jjof7cThoUx86ER9J9H7T7xz94xLJq1tzbgYg", "width": 960}], "place_id": "ChIJQanyyspEBEcRSfbXUCaxYGQ", "plus_code": {"compound_code": "CW66+34 Pozna\u0144, Poland", "global_code": "9F4RCW66+34"}, "price_level": 2, "rating": 4.6, "reference": "ChIJQanyyspEBEcRSfbXUCaxYGQ", "scope": "GOOGLE", "types": ["cafe", "bar", "restaurant", "food", "point_of_interest", "store", "establishment"], "user_ratings_total": 439, "vicinity": "S\u0142owackiego 16, Pozna\u0144", "time_text": "15 mins", "time_sec": 900}, {"business_status": "OPERATIONAL", "geometry": {"location": {"lat": 52.4094027, "lng": 16.9247067}, "viewport": {"northeast": {"lat": 52.41079528029151, "lng": 16.92601223029151}, "southwest": {"lat": 52.40809731970851, "lng": 16.9233142697085}}}, "icon": "https://maps.gstatic.com/mapfiles/place_api/icons/cafe-71.png", "name": "KAHAWA Kawa i Ksi\u0105\u017cka", "opening_hours": {"open_now": true}, "photos": [{"height": 3024, "html_attributions": ["<a href=\"https://maps.google.com/maps/contrib/111254545157930426768\">KAHAWA Kawa i Ksi\u0105\u017cka</a>"], "photo_reference": "CkQ0AAAACCOIU2Gy82O7i1-TtUSjYxSF4V1LJsWNEDwAKM0uuY2Xp42cRl43kjh8d53WAYXqTR5rfyjbMWhexM8JU5hXIRIQEk8p8hL2fqCbcN4V50NW7BoU3b0kolUYH_9z-inMXkziE1ogDvo", "width": 4032}], "place_id": "ChIJp5rJ4TdbBEcRvAhiqAtD8OY", "plus_code": {"compound_code": "CW5F+QV Pozna\u0144, Poland", "global_code": "9F4RCW5F+QV"}, "price_level": 2, "rating": 4.7, "reference": "ChIJp5rJ4TdbBEcRvAhiqAtD8OY", "scope": "GOOGLE", "types": ["book_store", "cafe", "food", "point_of_interest", "store", "establishment"], "user_ratings_total": 485, "vicinity": "plac Ratajskiego 10d, Pozna\u0144", "time_text": "1 min", "time_sec": 16}, {"business_status": "OPERATIONAL", "geometry": {"location": {"lat": 52.4098829, "lng": 16.923216}, "viewport": {"northeast": {"lat": 52.4112062802915, "lng": 16.9246766802915}, "southwest": {"lat": 52.4085083197085, "lng": 16.92197871970849}}}, "icon": "https://maps.gstatic.com/mapfiles/place_api/icons/cafe-71.png", "name": "Kafej", "opening_hours": {"open_now": false}, "photos": [{"height": 2809, "html_attributions": ["<a href=\"https://maps.google.com/maps/contrib/100179427594559992665\">Radek S\u0142owik</a>"], "photo_reference": "CkQ0AAAAQxgm8McSE3RtKeEEOkwZDlZoObWK4TnAa1mbqTd5AWRW2y9eM-KT4n9vrHGdDP_11cv0nrKiZDWXkBKTNme2FBIQEq93m0u0XdG9Ld36dIuy0xoU49WDTb1p4Mkhcb0jvXyBVwsj_94", "width": 4306}], "place_id": "ChIJ-7rRtslEBEcRS3k6_dP-IrI", "plus_code": {"compound_code": "CW5F+X7 Pozna\u0144, Poland", "global_code": "9F4RCW5F+X7"}, "rating": 4.8, "reference": "ChIJ-7rRtslEBEcRS3k6_dP-IrI", "scope": "GOOGLE", "types": ["cafe", "food", "point_of_interest", "establishment"], "user_ratings_total": 65, "vicinity": "plac Ratajskiego 4b, Pozna\u0144", "time_text": "1 min", "time_sec": 69}, {"business_status": "OPERATIONAL", "geometry": {"location": {"lat": 52.40976, "lng": 16.926015}, "viewport": {"northeast": {"lat": 52.4111982302915, "lng": 16.92733958029151}, "southwest": {"lat": 52.4085002697085, "lng": 16.9246416197085}}}, "icon": "https://maps.gstatic.com/mapfiles/place_api/icons/cafe-71.png", "name": "Kawiarnia K\u00f3ltura", "opening_hours": {"open_now": false}, "place_id": "ChIJ86SnDMpEBEcRImk_Q_gEjos", "plus_code": {"compound_code": "CW5G+WC Pozna\u0144, Poland", "global_code": "9F4RCW5G+WC"}, "rating": 5, "reference": "ChIJ86SnDMpEBEcRImk_Q_gEjos", "scope": "GOOGLE", "types": ["cafe", "food", "point_of_interest", "establishment"], "user_ratings_total": 1, "vicinity": "23 Lutego 8, Pozna\u0144", "time_text": "2 mins", "time_sec": 100}, {"business_status": "OPERATIONAL", "geometry": {"location": {"lat": 52.40976, "lng": 16.926015}, "viewport": {"northeast": {"lat": 52.4111982302915, "lng": 16.9273396302915}, "southwest": {"lat": 52.4085002697085, "lng": 16.9246416697085}}}, "icon": "https://maps.gstatic.com/mapfiles/place_api/icons/cafe-71.png", "name": "Kawiarnia Artystyczna \"K\u00f3ltura\"", "opening_hours": {"open_now": false}, "photos": [{"height": 3024, "html_attributions": ["<a href=\"https://maps.google.com/maps/contrib/105170910348749644527\">Monika Szatkowska</a>"], "photo_reference": "CkQ0AAAAn2U98ZyZBNVpL5L2RUWvtm2_QNYgijp72MbNEKmt6Aimtyc1EAbKheBlG3oN9hA8gunjJFnEl2mclHJJnvPu4RIQ-6KO4uv-SVAeMCdyplZKHxoUBUxwXjHSDmBz1Av-arEd2X2Sosw", "width": 4032}], "place_id": "ChIJd_seBEhbBEcRbJE5S9VhYYU", "plus_code": {"compound_code": "CW5G+WC Pozna\u0144, Poland", "global_code": "9F4RCW5G+WC"}, "price_level": 1, "rating": 4.8, "reference": "ChIJd_seBEhbBEcRbJE5S9VhYYU", "scope": "GOOGLE", "types": ["cafe", "food", "point_of_interest", "establishment"], "user_ratings_total": 120, "vicinity": "23 Lutego 8, Pozna\u0144", "time_text": "2 mins", "time_sec": 100}, {"business_status": "OPERATIONAL", "geometry": {"location": {"lat": 52.4087051, "lng": 16.9219578}, "viewport": {"northeast": {"lat": 52.4100124302915, "lng": 16.9233663302915}, "southwest": {"lat": 52.4073144697085, "lng": 16.92066836970849}}}, "icon": "https://maps.gstatic.com/mapfiles/place_api/icons/cafe-71.png", "name": "\u015awietlica Miejska", "opening_hours": {"open_now": true}, "place_id": "ChIJpb7lyjdbBEcRhhTT7qqJOOI", "plus_code": {"compound_code": "CW5C+FQ Pozna\u0144, Poland", "global_code": "9F4RCW5C+FQ"}, "rating": 4.4, "reference": "ChIJpb7lyjdbBEcRhhTT7qqJOOI", "scope": "GOOGLE", "types": ["cafe", "food", "point_of_interest", "establishment"], "user_ratings_total": 11, "vicinity": "Miel\u017cy\u0144skiego 19, Pozna\u0144", "time_text": "3 mins", "time_sec": 158}, {"business_status": "OPERATIONAL", "geometry": {"location": {"lat": 52.40778590000001, "lng": 16.9247929}, "viewport": {"northeast": {"lat": 52.40925558029151, "lng": 16.9261697802915}, "southwest": {"lat": 52.40655761970851, "lng": 16.9234718197085}}}, "icon": "https://maps.gstatic.com/mapfiles/place_api/icons/shopping-71.png", "name": "Kwietna - Florist Tea Room", "opening_hours": {"open_now": false}, "photos": [{"height": 1048, "html_attributions": ["<a href=\"https://maps.google.com/maps/contrib/111305894660256188344\">KWIETNA - Kwiaciarnia Herbaciarnia</a>"], "photo_reference": "CkQ0AAAAwKdMGoHVxSLytV2H7AEs-HIAUobEiB76BcGmWpQ__YrCc6cbLsATvXrF2NjTuT2jaYuJSf7oE9cTplyhq8AXcxIQX7HC5zJiDpwBjw-kF4nsXhoUh8_VeF7weSeq5jfOlIW5heAt3c4", "width": 1000}], "place_id": "ChIJD6BiljdbBEcRM-eY3jeyDaU", "plus_code": {"compound_code": "CW5F+4W Pozna\u0144, Poland", "global_code": "9F4RCW5F+4W"}, "rating": 4.7, "reference": "ChIJD6BiljdbBEcRM-eY3jeyDaU", "scope": "GOOGLE", "types": ["florist", "cafe", "food", "point_of_interest", "store", "establishment"], "user_ratings_total": 255, "vicinity": "27 Grudnia 3, Pozna\u0144", "time_text": "2 mins", "time_sec": 146}, {"business_status": "OPERATIONAL", "geometry": {"location": {"lat": 52.40603400000001, "lng": 16.9272021}, "viewport": {"northeast": {"lat": 52.4073775802915, "lng": 16.9285221302915}, "southwest": {"lat": 52.4046796197085, "lng": 16.9258241697085}}}, "icon": "https://maps.gstatic.com/mapfiles/place_api/icons/shopping-71.png", "name": "Dom Mody M\u0119skiej - Gentleman Men's Clothing", "opening_hours": {"open_now": true}, "place_id": "ChIJD9r6bzlbBEcRV3-DdxXQn-4", "plus_code": {"compound_code": "CW4G+CV Pozna\u0144, Poland", "global_code": "9F4RCW4G+CV"}, "reference": "ChIJD9r6bzlbBEcRV3-DdxXQn-4", "scope": "GOOGLE", "types": ["department_store", "point_of_interest", "clothing_store", "store", "establishment"], "vicinity": "Piekary 26, Pozna\u0144", "time_text": "6 mins", "time_sec": 389}, {"business_status": "OPERATIONAL", "geometry": {"location": {"lat": 52.40141690000001, "lng": 16.9139504}, "viewport": {"northeast": {"lat": 52.4027334802915, "lng": 16.9155876302915}, "southwest": {"lat": 52.4000355197085, "lng": 16.9128896697085}}}, "icon": "https://maps.gstatic.com/mapfiles/place_api/icons/shopping-71.png", "name": "TK Maxx", "opening_hours": {"open_now": false}, "photos": [{"height": 3024, "html_attributions": ["<a href=\"https://maps.google.com/maps/contrib/105547113726210003741\">Mateusz Ch\u0119clewski</a>"], "photo_reference": "CkQ0AAAA9XDROsbZgO-rYb3ndYLeWOdOkKzRSe7uelWDmoNW5sQOD-3GDpOgkrbRIyGnppKoB24fd4dM5MMx5iFRN5MQ3RIQwV8VoukdtQsqcwOF-beitRoUUjrAQPXdP1zZLIb51CDtpi68AhM", "width": 4032}], "place_id": "ChIJxWqcwDpbBEcRCX7MNEBIquQ", "plus_code": {"compound_code": "CW27+HH Pozna\u0144, Poland", "global_code": "9F4RCW27+HH"}, "price_level": 1, "rating": 4.3, "reference": "ChIJxWqcwDpbBEcRCX7MNEBIquQ", "scope": "GOOGLE", "types": ["department_store", "point_of_interest", "store", "establishment"], "user_ratings_total": 1243, "vicinity": "Galeria handlowa Avenida, Matyi 2, Pozna\u0144", "time_text": "20 mins", "time_sec": 1172}, {"business_status": "OPERATIONAL", "geometry": {"location": {"lat": 52.4074777, "lng": 16.9198526}, "viewport": {"northeast": {"lat": 52.40873793029149, "lng": 16.9211689802915}, "southwest": {"lat": 52.4060399697085, "lng": 16.9184710197085}}}, "icon": "https://maps.gstatic.com/mapfiles/place_api/icons/library-71.png", "name": "Biblioteka Instytutu Prahistorii", "photos": [{"height": 3265, "html_attributions": ["<a href=\"https://maps.google.com/maps/contrib/113955543948975236397\">Piotr Wozi\u0144ski</a>"], "photo_reference": "CkQ0AAAAorC_-ttE9A_LH7OtoRjUA9_hAu04BJW_3K9yl0XYFldROmC_PYaSctsoqSNH4I2kqLUi8RedrBfITAJ0jbsIHxIQilJXKSdw0aDN5QNfJSSw7BoU2nE0xa5xWVstCc9FuMGpm_FVcBo", "width": 4898}], "place_id": "ChIJ06fd9zZbBEcRGgYV6AYXEl4", "plus_code": {"compound_code": "CW49+XW Pozna\u0144, Poland", "global_code": "9F4RCW49+XW"}, "reference": "ChIJ06fd9zZbBEcRGgYV6AYXEl4", "scope": "GOOGLE", "types": ["library", "point_of_interest", "establishment"], "vicinity": "\u015awi\u0119ty Marcin 78, Pozna\u0144", "time_text": "6 mins", "time_sec": 360}, {"business_status": "OPERATIONAL", "geometry": {"location": {"lat": 52.4073006, "lng": 16.9254535}, "viewport": {"northeast": {"lat": 52.40865238029151, "lng": 16.9267101302915}, "southwest": {"lat": 52.40595441970851, "lng": 16.9240121697085}}}, "icon": "https://maps.gstatic.com/mapfiles/place_api/icons/library-71.png", "name": "Poznan University Library", "opening_hours": {"open_now": false}, "photos": [{"height": 4000, "html_attributions": ["<a href=\"https://maps.google.com/maps/contrib/117898683092047960041\">IA P</a>"], "photo_reference": "CkQ0AAAAm5j_SDH3hnmhAzYJAJ7lNoJdaB-09MP7CIdrLjOHoDDXNDVtEmt0HES_Fi9OcG8ANsCttLzy2L7jUiMd4LwevhIQmsrLYE8NGv48q3POusz-DBoUHIVTdJqqm4TaYgw_p165j-a73nM", "width": 3000}], "place_id": "ChIJb4RQLDhbBEcRtTKu0lTZWtU", "plus_code": {"compound_code": "CW4G+W5 Pozna\u0144, Poland", "global_code": "9F4RCW4G+W5"}, "rating": 4.5, "reference": "ChIJb4RQLDhbBEcRtTKu0lTZWtU", "scope": "GOOGLE", "types": ["library", "point_of_interest", "establishment"], "user_ratings_total": 51, "vicinity": "Ratajczaka 38/40, Pozna\u0144", "time_text": "3 mins", "time_sec": 198}, {"business_status": "OPERATIONAL", "geometry": {"location": {"lat": 52.4096293, "lng": 16.9189669}, "viewport": {"northeast": {"lat": 52.4108673302915, "lng": 16.9198960302915}, "southwest": {"lat": 52.4081693697085, "lng": 16.9171980697085}}}, "icon": "https://maps.gstatic.com/mapfiles/place_api/icons/library-71.png", "name": "Library of the Faculty of Polish and Classical Philology, Adam Mickiewicz University", "opening_hours": {"open_now": true}, "photos": [{"height": 2592, "html_attributions": ["<a href=\"https://maps.google.com/maps/contrib/111418518826917522874\">Andrzej Narloch</a>"], "photo_reference": "CkQ0AAAANsHmrJqRx-JCxzzMXlpaP-zKiX4SZsMgwVWycWCa_I-6MRAeLLSe6gtMFiqWiOfoLK0D8mnWdTVO_BUSOuSERRIQZyx4Tw6Qdoq5waLyq1rNoBoU8Yue-Ds0YhW9UEulL35WvfONdxA", "width": 4608}], "place_id": "ChIJoe2EAzZbBEcRGFd_niIl9ZE", "plus_code": {"compound_code": "CW59+VH Pozna\u0144, Poland", "global_code": "9F4RCW59+VH"}, "rating": 5, "reference": "ChIJoe2EAzZbBEcRGFd_niIl9ZE", "scope": "GOOGLE", "types": ["library", "point_of_interest", "establishment"], "user_ratings_total": 5, "vicinity": "Fredry 10, Pozna\u0144", "time_text": "6 mins", "time_sec": 345}, {"business_status": "OPERATIONAL", "geometry": {"location": {"lat": 52.4078361, "lng": 16.9147392}, "viewport": {"northeast": {"lat": 52.4090898302915, "lng": 16.9160610302915}, "southwest": {"lat": 52.4063918697085, "lng": 16.9133630697085}}}, "icon": "https://maps.gstatic.com/mapfiles/place_api/icons/library-71.png", "name": "Library of the Faculty of Law and Administration of the Adam Mickiewicz University", "opening_hours": {"open_now": false}, "photos": [{"height": 1484, "html_attributions": ["<a href=\"https://maps.google.com/maps/contrib/109783166261781205291\">Edward Pokojowicz</a>"], "photo_reference": "CkQ0AAAA7-HWPAMMgIXyzKzaMAZAgKGA-JfBkp-pVtAbm4osoMJf8rra506Ye8J9dImeTJl_ZZFNksQmjD2bn-DP3jI9PRIQsqQAzCpDCqzLHvSbNzNKAxoUBSiYuM9EiY8wQOfgi2LO0-KlxRE", "width": 1980}], "place_id": "ChIJM5VQCTdbBEcRtrDDREbQhUQ", "plus_code": {"compound_code": "CW57+4V Pozna\u0144, Poland", "global_code": "9F4RCW57+4V"}, "rating": 3.7, "reference": "ChIJM5VQCTdbBEcRtrDDREbQhUQ", "scope": "GOOGLE", "types": ["library", "point_of_interest", "establishment"], "user_ratings_total": 7, "vicinity": "\u015awi\u0119ty Marcin 90/13, Pozna\u0144", "time_text": "11 mins", "time_sec": 649}, {"business_status": "OPERATIONAL", "geometry": {"location": {"lat": 52.4154135, "lng": 16.9249352}, "viewport": {"northeast": {"lat": 52.4166475802915, "lng": 16.9263298802915}, "southwest": {"lat": 52.4139496197085, "lng": 16.92363191970849}}}, "icon": "https://maps.gstatic.com/mapfiles/place_api/icons/library-71.png", "name": "Library and Information Centre", "opening_hours": {"open_now": false}, "place_id": "ChIJ00wRw05bBEcRk9C_rqQsWUA", "plus_code": {"compound_code": "CW8F+5X Pozna\u0144, Poland", "global_code": "9F4RCW8F+5X"}, "reference": "ChIJ00wRw05bBEcRk9C_rqQsWUA", "scope": "GOOGLE", "types": ["library", "point_of_interest", "establishment"], "vicinity": "Aleja Niepodleg\u0142o\u015bci 53, Pozna\u0144", "time_text": "13 mins", "time_sec": 767}, {"business_status": "OPERATIONAL", "geometry": {"location": {"lat": 52.4052196, "lng": 16.9389888}, "viewport": {"northeast": {"lat": 52.4065973302915, "lng": 16.9404264302915}, "southwest": {"lat": 52.4038993697085, "lng": 16.9377284697085}}}, "icon": "https://maps.gstatic.com/mapfiles/place_api/icons/library-71.png", "name": "Instytut Zachodni", "opening_hours": {"open_now": false}, "photos": [{"height": 5120, "html_attributions": ["<a href=\"https://maps.google.com/maps/contrib/116433805320791150363\">B</a>"], "photo_reference": "CkQ0AAAAi87mhZio__Gu5Yl8x4OzbNn3S6o948uIorOh66b5t9rwsLt8r7zEqAnEmHkXpMOCvzbYX16Lk0M1hSKwgqZtwBIQ9lMICb_vWzRymlL37lbvDxoU56ppfh_B5HA-BBOC9VWi3SfwPmc", "width": 3840}], "place_id": "ChIJKVT3fxVbBEcRxo911nFX3-k", "plus_code": {"compound_code": "CW4Q+3H Pozna\u0144, Poland", "global_code": "9F4RCW4Q+3H"}, "rating": 1, "reference": "ChIJKVT3fxVbBEcRxo911nFX3-k", "scope": "GOOGLE", "types": ["library", "point_of_interest", "establishment"], "user_ratings_total": 1, "vicinity": "Mostowa 27A, Pozna\u0144", "time_text": "16 mins", "time_sec": 934}, {"business_status": "OPERATIONAL", "geometry": {"location": {"lat": 52.408437, "lng": 16.92866}, "viewport": {"northeast": {"lat": 52.4097187302915, "lng": 16.9299943302915}, "southwest": {"lat": 52.4070207697085, "lng": 16.9272963697085}}}, "icon": "https://maps.gstatic.com/mapfiles/place_api/icons/library-71.png", "name": "Raczy\u0144ski Library", "opening_hours": {"open_now": false}, "photos": [{"height": 2322, "html_attributions": ["<a href=\"https://maps.google.com/maps/contrib/102114055614737611430\">Robson</a>"], "photo_reference": "CkQ0AAAAl9vvH96Vk1WM-OxkqIawJ-uWe6exMTpcjWxIbfaDkhP_ve7UHvByRT-o5oiE-QBdxIEndgoCqQWDTdcfEmAb6BIQs5Tr41fZWEWa-pNHGn9KGxoU532VC0dT5DXgqkkg-1AYJUMwE4E", "width": 4128}], "place_id": "ChIJ6_upcThbBEcRAwwvIJO4guE", "plus_code": {"compound_code": "CW5H+9F Pozna\u0144, Poland", "global_code": "9F4RCW5H+9F"}, "rating": 4.6, "reference": "ChIJ6_upcThbBEcRAwwvIJO4guE", "scope": "GOOGLE", "types": ["library", "point_of_interest", "establishment"], "user_ratings_total": 169, "vicinity": "plac Wolno\u015bci 19, Pozna\u0144", "time_text": "4 mins", "time_sec": 253}, {"business_status": "OPERATIONAL", "geometry": {"location": {"lat": 52.3947645, "lng": 16.9165326}, "viewport": {"northeast": {"lat": 52.3960586802915, "lng": 16.9179880802915}, "southwest": {"lat": 52.3933607197085, "lng": 16.9152901197085}}}, "icon": "https://maps.gstatic.com/mapfiles/place_api/icons/library-71.png", "name": "Biblioteka Raczy\u0144skich Filia Wildecka", "opening_hours": {"open_now": false}, "photos": [{"height": 3024, "html_attributions": ["<a href=\"https://maps.google.com/maps/contrib/102094690299937045280\">Michal Pa</a>"], "photo_reference": "CkQ0AAAABqIVCQ_KI_KzJF7IIqdh5q_vc8cZQDMGctWGvRGJV2phm70v2Fcaak4cmeP58hdZ7KE5GgrjX66c3gNO1FRuwxIQQkZ489RGK42xC8tNfW52gRoUck2SfLcKysM76LetcLoFo2695YQ", "width": 4032}], "place_id": "ChIJiVxqKy9bBEcRaKUFgdMCWEY", "plus_code": {"compound_code": "9WV8+WJ Pozna\u0144, Poland", "global_code": "9F4R9WV8+WJ"}, "rating": 5, "reference": "ChIJiVxqKy9bBEcRaKUFgdMCWEY", "scope": "GOOGLE", "types": ["library", "point_of_interest", "establishment"], "user_ratings_total": 12, "vicinity": "Robocza 4A, Pozna\u0144", "time_text": "26 mins", "time_sec": 1583}, {"business_status": "OPERATIONAL", "geometry": {"location": {"lat": 52.3950918, "lng": 16.9316148}, "viewport": {"northeast": {"lat": 52.39646553029151, "lng": 16.9327936802915}, "southwest": {"lat": 52.39376756970851, "lng": 16.9300957197085}}}, "icon": "https://maps.gstatic.com/mapfiles/place_api/icons/library-71.png", "name": "Biblioteka AWF", "opening_hours": {"open_now": false}, "photos": [{"height": 2336, "html_attributions": ["<a href=\"https://maps.google.com/maps/contrib/101353127947665333562\">Ryszard - R</a>"], "photo_reference": "CkQ0AAAA9z6kMy-yMN42u1LK8VgVpb34RkOF1jdpzWFUzn1xmYoEns58NHkZuq3wxiDZh-RfhaeYc_OIoNbJq4Uj3j44WhIQ1Wi_rvNGZL82neskdR3BlxoUM_jpIjTn7tQV_I9VuFEfmQ4ZvEg", "width": 4160}], "place_id": "ChIJ9XC09CJbBEcRy_tfMV5idmw", "plus_code": {"compound_code": "9WWJ+2J Pozna\u0144, Poland", "global_code": "9F4R9WWJ+2J"}, "rating": 5, "reference": "ChIJ9XC09CJbBEcRy_tfMV5idmw", "scope": "GOOGLE", "types": ["library", "point_of_interest", "establishment"], "user_ratings_total": 6, "vicinity": "Droga D\u0119bi\u0144ska, Pozna\u0144", "time_text": "27 mins", "time_sec": 1638}, {"business_status": "OPERATIONAL", "geometry": {"location": {"lat": 52.4085356, "lng": 16.9324982}, "viewport": {"northeast": {"lat": 52.4100936302915, "lng": 16.9339332802915}, "southwest": {"lat": 52.4073956697085, "lng": 16.9312353197085}}}, "icon": "https://maps.gstatic.com/mapfiles/place_api/icons/library-71.png", "name": "Biblioteka K\u00f3rnicka PAN. Oddzia\u0142. Pa\u0142ac Dzia\u0142y\u0144skich", "photos": [{"height": 888, "html_attributions": ["<a href=\"https://maps.google.com/maps/contrib/100694345576973734304\">Andrzej Kwasik</a>"], "photo_reference": "CkQ0AAAAdXaQ-8Ybydv2brLcdcoqmfZgitQ99m5vWhE2y0WRwPH_VMrkIaEdOPEYFA9CJHJWKd6uT5C7TVQHsAR2WEIS5xIQRiMXozWKDFEP9Yd0eTGShhoUkzp6qMMabxn8QQMOOkI7YxFUCaU", "width": 1187}], "place_id": "ChIJB8hPX0dbBEcRqPzFFvzIB4M", "plus_code": {"compound_code": "CW5J+CX Pozna\u0144, Poland", "global_code": "9F4RCW5J+CX"}, "rating": 4.8, "reference": "ChIJB8hPX0dbBEcRqPzFFvzIB4M", "scope": "GOOGLE", "types": ["library", "point_of_interest", "establishment"], "user_ratings_total": 21, "vicinity": "Stary Rynek 78, Pozna\u0144", "time_text": "9 mins", "time_sec": 537}, {"business_status": "OPERATIONAL", "geometry": {"location": {"lat": 52.4074777, "lng": 16.9198526}, "viewport": {"northeast": {"lat": 52.40873793029149, "lng": 16.9211689802915}, "southwest": {"lat": 52.4060399697085, "lng": 16.9184710197085}}}, "icon": "https://maps.gstatic.com/mapfiles/place_api/icons/library-71.png", "name": "Biblioteka Instytutu Historii UAM", "place_id": "ChIJ06fd9zZbBEcRRKvHrszFD2o", "plus_code": {"compound_code": "CW49+XW Pozna\u0144, Poland", "global_code": "9F4RCW49+XW"}, "reference": "ChIJ06fd9zZbBEcRRKvHrszFD2o", "scope": "GOOGLE", "types": ["library", "point_of_interest", "establishment"], "vicinity": "\u015awi\u0119ty Marcin 78, Pozna\u0144", "time_text": "6 mins", "time_sec": 360}, {"business_status": "OPERATIONAL", "geometry": {"location": {"lat": 52.4109574, "lng": 16.9322253}, "viewport": {"northeast": {"lat": 52.4123222802915, "lng": 16.9334848802915}, "southwest": {"lat": 52.40962431970851, "lng": 16.9307869197085}}}, "icon": "https://maps.gstatic.com/mapfiles/place_api/icons/library-71.png", "name": "Main University Library", "opening_hours": {"open_now": false}, "photos": [{"height": 4057, "html_attributions": ["<a href=\"https://maps.google.com/maps/contrib/108658953353248081065\">MarKS</a>"], "photo_reference": "CkQzAAAA55f05XdVvtg_LhlGse7nbTPw03h1WnD-lzoFBWyV02Vw7JL1W0TqCd8X4wyqu7z8dmk0TXVQUszJs9nzmPReQxIQOQsJwlKJhW11EkiG_LeVJRoUhfjYRems9J3sZBJpMhTHhKNMmzs", "width": 2874}], "place_id": "ChIJpTpCA0dbBEcRrbJbhHFHI3c", "plus_code": {"compound_code": "CW6J+9V Pozna\u0144, Poland", "global_code": "9F4RCW6J+9V"}, "reference": "ChIJpTpCA0dbBEcRrbJbhHFHI3c", "scope": "GOOGLE", "types": ["library", "point_of_interest", "establishment"], "vicinity": "plac Wielkopolski 9, Pozna\u0144", "time_text": "9 mins", "time_sec": 512}, {"business_status": "OPERATIONAL", "geometry": {"location": {"lat": 52.409291, "lng": 16.923021}, "viewport": {"northeast": {"lat": 52.4105925302915, "lng": 16.9244376302915}, "southwest": {"lat": 52.4078945697085, "lng": 16.9217396697085}}}, "icon": "https://maps.gstatic.com/mapfiles/place_api/icons/generic_business-71.png", "name": "Pozna\u0144 Society of Friends of Learning", "opening_hours": {"open_now": false}, "photos": [{"height": 518, "html_attributions": ["<a href=\"https://maps.google.com/maps/contrib/115886724818938617519\">Pozna\u0144skie Towarzystwo Przyjaci\u00f3\u0142 Nauk</a>"], "photo_reference": "CkQ0AAAAvB8NrCbY86oBq7JdUJPmH9W5A6taXYqeG8ia0sZksvKPpTT-MNd-7VTez-ICZEaiqP6EZXaatNyV9q2Go5_hvhIQ-KmEploaCB-2CP5YxfvCYhoUsfKEBfwcoILujurpFZOd5XzvhwE", "width": 800}], "place_id": "ChIJM0z70TdbBEcRfi8MARJz-IM", "plus_code": {"compound_code": "CW5F+P6 Pozna\u0144, Poland", "global_code": "9F4RCW5F+P6"}, "rating": 5, "reference": "ChIJM0z70TdbBEcRfi8MARJz-IM", "scope": "GOOGLE", "types": ["library", "point_of_interest", "establishment"], "user_ratings_total": 6, "vicinity": "Miel\u017cy\u0144skiego 27/29, Pozna\u0144", "time_text": "1 min", "time_sec": 79}, {"business_status": "OPERATIONAL", "geometry": {"location": {"lat": 52.4103396, "lng": 16.9343093}, "viewport": {"northeast": {"lat": 52.41169393029149, "lng": 16.9356049302915}, "southwest": {"lat": 52.40899596970849, "lng": 16.9329069697085}}}, "icon": "https://maps.gstatic.com/mapfiles/place_api/icons/library-71.png", "name": "Biblioteka Raczy\u0144skich Filia 39/61", "opening_hours": {"open_now": false}, "photos": [{"height": 3008, "html_attributions": ["<a href=\"https://maps.google.com/maps/contrib/117078490113488172792\">Kamil Kwiatkowski</a>"], "photo_reference": "CkQzAAAAD4oEHNtsXWcAfoO2bZEENjEutyXH-FSNCFK73sf7zbUVhYLyG-B0-8Dc3nrs2qQbKzALqiMm8If0J3yZBwnJlRIQzwVV8Dl8zUrCVtHhdrZeChoUvKhzpFZ_Ypcat0y_3_TCMHt2ksM", "width": 4016}], "place_id": "ChIJqRwRL0dbBEcRjpxDBUQx_dw", "plus_code": {"compound_code": "CW6M+4P Pozna\u0144, Poland", "global_code": "9F4RCW6M+4P"}, "rating": 4.8, "reference": "ChIJqRwRL0dbBEcRjpxDBUQx_dw", "scope": "GOOGLE", "types": ["library", "point_of_interest", "establishment"], "user_ratings_total": 5, "vicinity": "Wroniecka 15, Pozna\u0144", "time_text": "10 mins", "time_sec": 572}, {"business_status": "OPERATIONAL", "geometry": {"location": {"lat": 52.4089695, "lng": 16.9192067}, "viewport": {"northeast": {"lat": 52.4102914802915, "lng": 16.9208827802915}, "southwest": {"lat": 52.4075935197085, "lng": 16.9181848197085}}}, "icon": "https://maps.gstatic.com/mapfiles/place_api/icons/library-71.png", "name": "Regionalne Centrum Edukacji Ekologicznej", "place_id": "ChIJRWFmaTZbBEcRHTW3OPH8iko", "plus_code": {"compound_code": "CW59+HM Pozna\u0144, Poland", "global_code": "9F4RCW59+HM"}, "reference": "ChIJRWFmaTZbBEcRHTW3OPH8iko", "scope": "GOOGLE", "types": ["library", "point_of_interest", "establishment"], "vicinity": "Ko\u015bciuszki 79, Pozna\u0144", "time_text": "6 mins", "time_sec": 334}, {"business_status": "OPERATIONAL", "geometry": {"location": {"lat": 52.404632, "lng": 16.9215999}, "viewport": {"northeast": {"lat": 52.4058049302915, "lng": 16.9228797802915}, "southwest": {"lat": 52.4031069697085, "lng": 16.9201818197085}}}, "icon": "https://maps.gstatic.com/mapfiles/place_api/icons/library-71.png", "name": "Biblioteka G\u0142\u00f3wna Uniwersytetu Ekonomicznego w Poznaniu", "opening_hours": {"open_now": false}, "photos": [{"height": 2309, "html_attributions": ["<a href=\"https://maps.google.com/maps/contrib/110770199099328839157\">Biblioteka G\u0142\u00f3wna Uniwersytetu Ekonomicznego w Poznaniu</a>"], "photo_reference": "CkQ0AAAAfjn9eJcrXT1wufek3l0TXNeZkATvaPAJAKDugr-ra2PfIcIRAA6IYxryOSHhMgbcerapzZnbzpkXFClEkfWGtxIQwANXmbB08OdoAn8C0Gi8pBoUJxGrjqb8EAZbJ30T0hxH9F-ZAH8", "width": 3449}], "place_id": "ChIJgVjASzdbBEcR7N3H4AFVQEI", "plus_code": {"compound_code": "CW3C+VJ Pozna\u0144, Poland", "global_code": "9F4RCW3C+VJ"}, "rating": 4.9, "reference": "ChIJgVjASzdbBEcR7N3H4AFVQEI", "scope": "GOOGLE", "types": ["library", "point_of_interest", "establishment"], "user_ratings_total": 13, "vicinity": "Powsta\u0144c\u00f3w Wielkopolskich 16, Pozna\u0144", "time_text": "10 mins", "time_sec": 582}, {"business_status": "OPERATIONAL", "geometry": {"location": {"lat": 52.4079971, "lng": 16.9222841}, "viewport": {"northeast": {"lat": 52.40943408029149, "lng": 16.9238672802915}, "southwest": {"lat": 52.40673611970849, "lng": 16.92116931970849}}}, "icon": "https://maps.gstatic.com/mapfiles/place_api/icons/library-71.png", "name": "Biblioteka Wy\u017cszej Szko\u0142y J\u0119zyk\u00f3w Obcych im. S.B. Lindego", "place_id": "ChIJZ6tjsDdbBEcRWwqJho6vN1g", "plus_code": {"compound_code": "CW5C+5W Pozna\u0144, Poland", "global_code": "9F4RCW5C+5W"}, "reference": "ChIJZ6tjsDdbBEcRWwqJho6vN1g", "scope": "GOOGLE", "types": ["library", "point_of_interest", "establishment"], "vicinity": "27 Grudnia 17/19, Pozna\u0144", "time_text": "4 mins", "time_sec": 215}, {"business_status": "OPERATIONAL", "geometry": {"location": {"lat": 52.4068885, "lng": 16.9254438}, "viewport": {"northeast": {"lat": 52.40824063029149, "lng": 16.9266884802915}, "southwest": {"lat": 52.4055426697085, "lng": 16.9239905197085}}}, "icon": "https://maps.gstatic.com/mapfiles/place_api/icons/school-71.png", "name": "NOVA. Czytelnia Komiks\u00f3w i Gazet", "opening_hours": {"open_now": true}, "photos": [{"height": 3136, "html_attributions": ["<a href=\"https://maps.google.com/maps/contrib/105821109131418749129\">J\u00f3zef \u015aliwi\u0144ski</a>"], "photo_reference": "CkQ0AAAAuwk3oLJAKwu6H2MnYfFKvya-4dgi4TfpGNNbH9kQOPNB-AA_3upg3MYXpLKvRhVRcWpGBIPLf4LE6ot4qPAC2BIQLarR-a3HAGfO2x75tw9nfxoUZVfAL_DDfi3Ea5Qyp39JY3RozvE", "width": 4224}], "place_id": "ChIJb4RQLDhbBEcROnW43NV1KVU", "plus_code": {"compound_code": "CW4G+Q5 Pozna\u0144, Poland", "global_code": "9F4RCW4G+Q5"}, "rating": 4.9, "reference": "ChIJb4RQLDhbBEcROnW43NV1KVU", "scope": "GOOGLE", "types": ["library", "point_of_interest", "establishment"], "user_ratings_total": 8, "vicinity": "Ratajczaka 38, Pozna\u0144", "time_text": "4 mins", "time_sec": 231}, {"business_status": "OPERATIONAL", "geometry": {"location": {"lat": 52.4091089, "lng": 16.9291014}, "viewport": {"northeast": {"lat": 52.4104566802915, "lng": 16.9304931302915}, "southwest": {"lat": 52.4077587197085, "lng": 16.9277951697085}}}, "icon": "https://maps.gstatic.com/mapfiles/place_api/icons/school-71.png", "name": "Biblioteka Raczy\u0144skich Filia 11dz", "opening_hours": {"open_now": false}, "photos": [{"height": 2976, "html_attributions": ["<a href=\"https://maps.google.com/maps/contrib/118224463195647461111\">Stenia</a>"], "photo_reference": "CkQ0AAAABwFjshb0KJX0cZINBHbFx4ZYP1Ybvy2yHVzeh88mBC12YT9jwfnCFik6YhK2iQ8md9b8awwDlClfPxqoOGYblBIQHF0-qxP5exVS0H7uKz4vExoUTOL8aV5Wco3Ri1W8TXn6pKw5n04", "width": 3968}], "place_id": "ChIJk7FHcrZbBEcRLO-Xuxjha_Y", "plus_code": {"compound_code": "CW5H+JJ Pozna\u0144, Poland", "global_code": "9F4RCW5H+JJ"}, "reference": "ChIJk7FHcrZbBEcRLO-Xuxjha_Y", "scope": "GOOGLE", "types": ["library", "point_of_interest", "establishment"], "vicinity": "Aleje Marcinkowskiego, Pozna\u0144", "time_text": "6 mins", "time_sec": 334}, {"business_status": "OPERATIONAL", "geometry": {"location": {"lat": 52.40999559999999, "lng": 16.9186316}, "viewport": {"northeast": {"lat": 52.41136918029149, "lng": 16.9198334802915}, "southwest": {"lat": 52.40867121970849, "lng": 16.9171355197085}}}, "icon": "https://maps.gstatic.com/mapfiles/place_api/icons/library-71.png", "name": "Biblioteka Uniwersytetu Medycznego im. K. Marcinkowskiego", "place_id": "ChIJg2-iUw1bBEcR04J6asim1mQ", "plus_code": {"compound_code": "CW59+XF Pozna\u0144, Poland", "global_code": "9F4RCW59+XF"}, "reference": "ChIJg2-iUw1bBEcR04J6asim1mQ", "scope": "GOOGLE", "types": ["library", "point_of_interest", "establishment"], "vicinity": "Stare Miasto, Pozna\u0144", "time_text": "7 mins", "time_sec": 419}, {"business_status": "CLOSED_TEMPORARILY", "geometry": {"location": {"lat": 52.40858679999999, "lng": 16.9340342}, "viewport": {"northeast": {"lat": 52.41021113029149, "lng": 16.9357930802915}, "southwest": {"lat": 52.4075131697085, "lng": 16.93309511970849}}}, "icon": "https://maps.gstatic.com/mapfiles/place_api/icons/museum-71.png", "name": "Museum of the History of Pozna\u0144", "permanently_closed": true, "photos": [{"height": 3680, "html_attributions": ["<a href=\"https://maps.google.com/maps/contrib/117128629470272496539\">Miguel As\u00fansolo</a>"], "photo_reference": "CkQ0AAAANZ6aYWjErxKaAG9NknXL44outQnyEqzRJnLgheM-VOWpta94CJkV_IIy5Jy_lGllmP-1XKWMV_uYdh075c5ZYBIQWEOO6awWuLrwT9d9DjaksxoUVKRi3NA0MWl2Ro0ney5x2L_ieSs", "width": 3920}], "place_id": "ChIJo_p0U0dbBEcRC1EKK_vW9WU", "plus_code": {"compound_code": "CW5M+CJ Pozna\u0144, Poland", "global_code": "9F4RCW5M+CJ"}, "rating": 4.6, "reference": "ChIJo_p0U0dbBEcRC1EKK_vW9WU", "scope": "GOOGLE", "types": ["tourist_attraction", "museum", "point_of_interest", "establishment"], "user_ratings_total": 8246, "vicinity": "Stary Rynek 1, Pozna\u0144", "time_text": "10 mins", "time_sec": 598}, {"business_status": "OPERATIONAL", "geometry": {"location": {"lat": 52.40738890000001, "lng": 16.9347225}, "viewport": {"northeast": {"lat": 52.4087626302915, "lng": 16.9366586802915}, "southwest": {"lat": 52.4060646697085, "lng": 16.93396071970849}}}, "icon": "https://maps.gstatic.com/mapfiles/place_api/icons/museum-71.png", "name": "Archaeological Museum in Pozna\u0144", "opening_hours": {"open_now": false}, "photos": [{"height": 568, "html_attributions": ["<a href=\"https://maps.google.com/maps/contrib/115574716282153326364\">Muzeum Archeologiczne.</a>"], "photo_reference": "CkQ0AAAA8CSf-sRBryG-auK5cv6eXTF4qtPy025JQRYGIjQrX6kGNK4Cb3n1PkCLmavjZZ2Ziw_HlHGn7ff47eN84NP_8hIQuuKV7p465Nh7Rj-sOjFEABoUPFwx0ZyBJGSe1TZ7j4ZnjnkDF9Q", "width": 886}], "place_id": "ChIJO3MkWz9bBEcRWe4wtWCFIlM", "plus_code": {"compound_code": "CW4M+XV Pozna\u0144, Poland", "global_code": "9F4RCW4M+XV"}, "rating": 4.6, "reference": "ChIJO3MkWz9bBEcRWe4wtWCFIlM", "scope": "GOOGLE", "types": ["tourist_attraction", "museum", "point_of_interest", "establishment"], "user_ratings_total": 873, "vicinity": "Wodna 27, Pozna\u0144", "time_text": "10 mins", "time_sec": 584}, {"business_status": "OPERATIONAL", "geometry": {"location": {"lat": 52.4074304, "lng": 16.9298674}, "viewport": {"northeast": {"lat": 52.4088549302915, "lng": 16.9308459802915}, "southwest": {"lat": 52.4061569697085, "lng": 16.9281480197085}}}, "icon": "https://maps.gstatic.com/mapfiles/place_api/icons/museum-71.png", "name": "Museum of Pharmacy", "opening_hours": {"open_now": false}, "photos": [{"height": 3024, "html_attributions": ["<a href=\"https://maps.google.com/maps/contrib/103548147372657057346\">Ma\u0142gorzata Hoedke</a>"], "photo_reference": "CkQzAAAAs3tA6GZ9vB0ALTHVVs7Ccq_hXCW15_wdpKV6EbN9qxWLoFMk9eYNoCcGMLTgs-kJsUB7sI8lPSa9Bw5rvgAnXhIQHaWViYeMUjH2uwQkDD1FkhoUeR_wTwsEhnxWcqUZNXR8ueuw2ZI", "width": 4032}], "place_id": "ChIJaye7ijhbBEcRo1pIuo_jwX4", "plus_code": {"compound_code": "CW4H+XW Pozna\u0144, Poland", "global_code": "9F4RCW4H+XW"}, "rating": 4.5, "reference": "ChIJaye7ijhbBEcRo1pIuo_jwX4", "scope": "GOOGLE", "types": ["museum", "tourist_attraction", "point_of_interest", "establishment"], "user_ratings_total": 28, "vicinity": "Aleje Marcinkowskiego 11, Pozna\u0144", "time_text": "6 mins", "time_sec": 354}, {"business_status": "OPERATIONAL", "geometry": {"location": {"lat": 52.4048342, "lng": 16.9258976}, "viewport": {"northeast": {"lat": 52.4062981302915, "lng": 16.9265978302915}, "southwest": {"lat": 52.4036001697085, "lng": 16.9238998697085}}}, "icon": "https://maps.gstatic.com/mapfiles/place_api/icons/museum-71.png", "name": "Wielkopolskie Muzeum Broni im. Piotra Sprawki", "opening_hours": {"open_now": false}, "photos": [{"height": 600, "html_attributions": ["<a href=\"https://maps.google.com/maps/contrib/103964577191445881470\">Tomasz Oko\u0144ski</a>"], "photo_reference": "CkQ0AAAABH2r6rbIsl4RZCux-g183Jlpg12GcpWR_EZ9CgdernnzUYFpBJ_RJndGBFpTTZWneQC3zb3IT6-n4DyJWPs0rRIQgE_FQIIFSQNzOx4W6shKkxoU8SNXblAva8Fyf23ynWcl3quoioA", "width": 401}], "place_id": "ChIJF7frkzlbBEcRRqDJRe-pS18", "plus_code": {"compound_code": "CW3G+W9 Pozna\u0144, Poland", "global_code": "9F4RCW3G+W9"}, "rating": 3, "reference": "ChIJF7frkzlbBEcRRqDJRe-pS18", "scope": "GOOGLE", "types": ["museum", "point_of_interest", "establishment"], "user_ratings_total": 2, "vicinity": "Ratajczaka 16, Pozna\u0144", "time_text": "8 mins", "time_sec": 471}, {"business_status": "OPERATIONAL", "geometry": {"location": {"lat": 52.40761839999999, "lng": 16.9190781}, "viewport": {"northeast": {"lat": 52.40884183029149, "lng": 16.9204078302915}, "southwest": {"lat": 52.40614386970849, "lng": 16.9177098697085}}}, "icon": "https://maps.gstatic.com/mapfiles/place_api/icons/museum-71.png", "name": "Pogromcy Enigmy", "opening_hours": {"open_now": true}, "photos": [{"height": 3120, "html_attributions": ["<a href=\"https://maps.google.com/maps/contrib/103468041302955127718\">Mirek Las</a>"], "photo_reference": "CkQ0AAAA9wYCHDlGweSP82hJqBGLnaLC2hqKSkqysT-YzySJcNi0JAseMy32ASPeKqwn2OfpAYCzlgSanfgMJmuwLZzzcRIQhpA-YCuNgfRM-wvujrfjbhoU4DuCSLzz_gq2WWqZxtVWdlHLxHc", "width": 4160}], "place_id": "ChIJa9xK9TZbBEcRwvNDnET7XH8", "plus_code": {"compound_code": "CW59+2J Pozna\u0144, Poland", "global_code": "9F4RCW59+2J"}, "rating": 4.7, "reference": "ChIJa9xK9TZbBEcRwvNDnET7XH8", "scope": "GOOGLE", "types": ["museum", "point_of_interest", "establishment"], "user_ratings_total": 29, "vicinity": "\u015awi\u0119ty Marcin 80/82, Pozna\u0144", "time_text": "7 mins", "time_sec": 401}, {"business_status": "OPERATIONAL", "geometry": {"location": {"lat": 52.4055695, "lng": 16.94064}, "viewport": {"northeast": {"lat": 52.4069623302915, "lng": 16.9420668802915}, "southwest": {"lat": 52.40426436970851, "lng": 16.9393689197085}}}, "icon": "https://maps.gstatic.com/mapfiles/place_api/icons/museum-71.png", "name": "Ethnographic Museum", "opening_hours": {"open_now": true}, "photos": [{"height": 1530, "html_attributions": ["<a href=\"https://maps.google.com/maps/contrib/103944590010997822592\">Pawe\u0142 Kwiatkowski</a>"], "photo_reference": "CkQ0AAAAiV1Dj-vIwvFZESLrYUun9ffmmKpKXimg4f7uQPT0tISAgKPLnAGkKBut-PgAT38MXt2VnaGRXV9-0J7KjVAelxIQVGBvwcJLdlDHlC07-6eJSxoUcwPI8CXd87lgeu1lACmhtycibHE", "width": 2048}], "place_id": "ChIJk0RLYRVbBEcR-PoCq9qkXaM", "plus_code": {"compound_code": "CW4R+67 Pozna\u0144, Poland", "global_code": "9F4RCW4R+67"}, "rating": 4.3, "reference": "ChIJk0RLYRVbBEcR-PoCq9qkXaM", "scope": "GOOGLE", "types": ["tourist_attraction", "museum", "point_of_interest", "establishment"], "user_ratings_total": 191, "vicinity": "wej\u015bcie od ul. Mostowej, Grobla 25, Pozna\u0144", "time_text": "16 mins", "time_sec": 944}, {"business_status": "OPERATIONAL", "geometry": {"location": {"lat": 52.4080227, "lng": 16.9347077}, "viewport": {"northeast": {"lat": 52.4093727302915, "lng": 16.9368203}, "southwest": {"lat": 52.4066747697085, "lng": 16.9337647}}}, "icon": "https://maps.gstatic.com/mapfiles/place_api/icons/museum-71.png", "name": "Museum of Musical Instruments", "opening_hours": {"open_now": true}, "photos": [{"height": 576, "html_attributions": ["<a href=\"https://maps.google.com/maps/contrib/104492298861533776866\">Karol Adamkiewicz</a>"], "photo_reference": "CkQ0AAAAEuWUXpRGCu1FZVnY5G5A0MhyIdBIan_oapJGB8DKzMz6xJSGvuong97e4R7OZNw84HNG0uP8m2jC_KcMeOY9qBIQsfCiD9DfoFaF_UWwC8G1oxoUzn5CbvR5j2ROg3Ud98l1oe4-2_E", "width": 840}], "place_id": "ChIJJevhVz9bBEcRHznZRG8onbQ", "plus_code": {"compound_code": "CW5M+6V Pozna\u0144, Poland", "global_code": "9F4RCW5M+6V"},